FMT, 128, 89, FMT, BBnNZ, Type,Length,Name,Format,Columns
FMT, 129, 23, PARM, Nf, Name,Value
FMT, 130, 45, GPS, BIHBcLLeeEefI, Status,TimeMS,Week,NSats,HDop,Lat,Lng,RelAlt,Alt,Spd,GCrs,VZ,T
FMT, 131, 31, IMU, Iffffff, TimeMS,GyrX,GyrY,GyrZ,AccX,AccY,AccZ
FMT, 132, 67, MSG, Z, Message
FMT, 133, 35, RCIN, Ihhhhhhhhhhhhhh, TimeMS,C1,C2,C3,C4,C5,C6,C7,C8,C9,C10,C11,C12,C13,C14
FMT, 134, 23, RCOU, Ihhhhhhhh, TimeMS,Chan1,Chan2,Chan3,Chan4,Chan5,Chan6,Chan7,Chan8
FMT, 136, 21, BARO, Iffcf, TimeMS,Alt,Press,Temp,CRt
FMT, 137, 13, POWR, ICCH, TimeMS,Vcc,VServo,Flags
FMT, 145, 41, CMD, IHHHfffffff, TimeMS,CTot,CNum,CId,Prm1,Prm2,Prm3,Prm4,Lat,Lng,Alt
FMT, 146, 16, RAD, IBBBBBHH, TimeMS,RSSI,RemRSSI,TxBuf,Noise,RemNoise,RxErrors,Fixed
FMT, 148, 31, CAM, IHLLeeccC, GPSTime,GPSWeek,Lat,Lng,Alt,RelAlt,Roll,Pitch,Yaw
FMT, 144, 46, GPS2, BIHBcLLeEefIBI, Status,TimeMS,Week,NSats,HDop,Lat,Lng,Alt,Spd,GCrs,VZ,T,DSc,DAg
FMT, 135, 31, IMU2, Iffffff, TimeMS,GyrX,GyrY,GyrZ,AccX,AccY,AccZ
FMT, 149, 31, IMU3, Iffffff, TimeMS,GyrX,GyrY,GyrZ,AccX,AccY,AccZ
FMT, 138, 25, AHR2, IccCfLL, TimeMS,Roll,Pitch,Yaw,Alt,Lat,Lng
FMT, 139, 25, SIM, IccCfLL, TimeMS,Roll,Pitch,Yaw,Alt,Lat,Lng
FMT, 140, 43, EKF1, IccCffffffccc, TimeMS,Roll,Pitch,Yaw,VN,VE,VD,PN,PE,PD,GX,GY,GZ
FMT, 141, 26, EKF2, Ibbbcchhhhhh, TimeMS,AX,AY,AZ,VWN,VWE,MN,ME,MD,MX,MY,MZ
FMT, 142, 27, EKF3, Icccccchhhc, TimeMS,IVN,IVE,IVD,IPN,IPE,IPD,IMX,IMY,IMZ,IVT
FMT, 143, 25, EKF4, IcccccccbbBB, TimeMS,SV,SP,SH,SMX,SMY,SMZ,SVT,OFN,EFE,FS,DS
FMT, 150, 30, TERR, IBLLHffHH, TimeMS,Status,Lat,Lng,Spacing,TerrH,CHeight,Pending,Loaded
FMT, 151, 12, UBX1, IBHBB, TimeMS,Instance,noisePerMS,jamInd,aPower
FMT, 152, 12, UBX2, IBbBbB, TimeMS,Instance,ofsI,magI,ofsQ,magQ
FMT, 25, 25, ATUN, BBfffff, Axis,TuneStep,RateMin,RateMax,RPGain,RDGain,SPGain
FMT, 26, 9, ATDE, cf, Angle,Rate
FMT, 9, 23, CURR, IhIhhhf, TimeMS,ThrOut,ThrInt,Volt,Curr,Vcc,CurrTot
FMT, 12, 20, OF, hhBccee, Dx,Dy,SQual,X,Y,Roll,Pitch
FMT, 5, 47, NTUN, Iffffffffff, TimeMS,DPosX,DPosY,PosX,PosY,DVelX,DVelY,VelX,VelY,DAccX,DAccY
FMT, 4, 33, CTUN, Ihhhffecchh, TimeMS,ThrIn,AngBst,ThrOut,DAlt,Alt,BarAlt,DSAlt,SAlt,DCRt,CRt
FMT, 15, 25, MAG, Ihhhhhhhhh, TimeMS,MagX,MagY,MagZ,OfsX,OfsY,OfsZ,MOfsX,MOfsY,MOfsZ
FMT, 27, 25, MAG2, Ihhhhhhhhh, TimeMS,MagX,MagY,MagZ,OfsX,OfsY,OfsZ,MOfsX,MOfsY,MOfsZ
FMT, 28, 25, MAG3, Ihhhhhhhhh, TimeMS,MagX,MagY,MagZ,OfsX,OfsY,OfsZ,MOfsX,MOfsY,MOfsZ
FMT, 6, 17, PM, HHIhBHB, NLon,NLoop,MaxT,PMT,I2CErr,INSErr,INAVErr
FMT, 1, 23, ATT, IccccCCCC, TimeMS,DesRoll,Roll,DesPitch,Pitch,DesYaw,Yaw,ErrRP,ErrYaw
FMT, 3, 6, MODE, Mh, Mode,ThrCrs
FMT, 10, 3, STRT, , 
FMT, 13, 4, EV, B, Id
FMT, 20, 6, D16, Bh, Id,Value
FMT, 21, 6, DU16, BH, Id,Value
FMT, 22, 8, D32, Bi, Id,Value
FMT, 23, 8, DU32, BI, Id,Value
FMT, 24, 8, DFLT, Bf, Id,Value
FMT, 19, 5, ERR, BB, Subsys,ECode
MSG, ArduCopter V3.2.1 (36b405fb)
MSG, PX4: ce602658 NuttX: 475b8c15
MSG, PX4v2 00520037 30345106 36353832
MSG, Frame: OCTA_QUAD
MODE, Stabilize, 832
EV, 10
MODE, Stabilize, 832
BARO, 35347, -0.09176487, 99684.84, 39.70, -0.0164503
CTUN, 35347, 0, 0, 0, 0, 0.26, -0.09, 0.00, 0.00, 0, 10
ATT, 35348, 0.00, -1.09, 0.00, -0.82, 249.92, 249.92, 0.00, 0.02
EKF1, 35348, -2.74, -0.82, 252.01, 0.04971308, -0.07037131, 0.1813411, 0.01112852, -0.01558093, -0.1106331, 0.00, 0.00, 0.00
EKF2, 35348, 50, 0, 0, 0.00, 0.00, 276, 55, 334, 94, 16, -98
EKF3, 35348, -0.04, 0.07, -0.18, 0.00, 0.00, 0.00, 0, 0, 0, 0.00
EKF4, 35348, 0.02, 0.00, 0.00, 0.00, 0.00, 0.00, 0.00, 0, 0, 0, 0
AHR2, 35348, -2.74, -0.82, 252.01, 139.3, 32.5242134, -116.9664028
RCIN, 35348, 1506, 1506, 992, 1507, 1146, 1015, 993, 1504, 0, 0, 0, 0, 0, 0
RCOU, 35349, 1082, 1082, 1082, 1082, 1082, 1082, 1082, 1082
IMU, 35349, -0.0004196092, -0.0003746543, -0.0009140875, -0.09474424, -0.1595624, -9.87403
IMU2, 35349, -0.0005742684, -0.002807062, 0.002751, -0.1845825, -0.04866314, -9.6088
UBX1, 35367, 0, 117, 7, 1
UBX2, 35367, 0, -8, 114, 45, 132
GPS, 3, 339604600, 1853, 6, 2.88, 32.524214, -116.9664031, 0.00, 139.14, 0.17, 170.89, 0.21, 35368
IMU, 35371, -0.0003025923, -0.0003350209, 8.356525E-05, -0.09496086, -0.1425509, -9.86612
IMU2, 35371, 0.002692893, -0.002327345, -0.001774974, -0.1084972, -0.05864859, -9.545214
GPS, 3, 339605200, 1853, 6, 2.88, 32.5242147, -116.9664036, 0.00, 139.05, 0.06, 170.89, 0.13, 35388
IMU, 35391, 0.0007074922, -0.0002510976, 0.006273159, -0.1271601, -0.1235934, -9.905143
IMU2, 35391, -0.002390767, 0.00148505, 0.01161936, -0.1030794, -0.004345059, -9.590149
IMU, 35411, 0.0006590746, 4.794262E-05, 0.006006734, -0.04405717, -0.249694, -9.891203
IMU2, 35411, -0.0004040077, 0.0005028397, 0.002020761, -0.0879091, -0.1920424, -9.485809
GPS, 3, 339605200, 1853, 6, 2.88, 32.5242162, -116.9664045, 0.00, 138.96, 0.09, 170.89, 0.14, 35428
IMU, 35432, -0.002170113, 0.0004184507, -0.02749479, -0.08253156, -0.1027276, -9.899199
IMU2, 35432, -0.0008485876, -0.0005408712, -0.02928802, -0.1599219, -0.08404434, -9.648668
MAG, 35450, -134, 237, 341, -94, -16, 98, 0, 0, 0
MAG2, 35450, -127, 218, 317, -21, 33, -551, 0, 0, 0
BARO, 35452, -0.1720591, 99685.73, 39.71, -0.1273998
CTUN, 35452, 0, 0, 0, 0, 0, -0.17, 0.00, 0.00, 0, 10
ATT, 35452, 0.00, -1.10, 0.00, -0.80, 249.90, 249.90, 0.28, 0.01
EKF1, 35452, -2.74, -0.83, 251.99, 0.02533527, -0.06722876, 0.193959, 0.03537263, -0.03286227, 0.1001714, 0.00, 0.00, 0.00
EKF2, 35452, 50, 0, 0, 0.00, 0.00, 276, 55, 334, 94, 16, -98
EKF3, 35452, -0.04, 0.00, 0.05, -0.28, 0.14, -0.20, 0, 0, 0, 0.00
EKF4, 35452, 0.00, 0.06, 0.00, 0.00, 0.00, 0.00, 0.00, 0, 0, 0, 0
AHR2, 35452, -2.74, -0.83, 251.99, 139.08, 32.5242137, -116.966403
RCIN, 35452, 1506, 1506, 992, 1506, 1147, 1015, 992, 1504, 0, 0, 0, 0, 0, 0
RCOU, 35453, 1082, 1082, 1082, 1082, 1082, 1082, 1082, 1082
IMU, 35453, -0.0004494209, 0.0002288781, -0.01192386, -0.114647, -0.1505482, -9.8522
IMU2, 35453, 0.003540225, -0.002835002, -0.005965348, -0.1623614, -0.07797742, -9.572691
IMU, 35473, 0.001411863, -0.001305927, 0.00815369, -0.09924038, -0.1178245, -9.920625
IMU2, 35473, 0.00337258, -0.003033485, 0.01172474, -0.1666515, -0.06760454, -9.573592
IMU, 35492, 0.00185689, 0.0007056389, 0.0170444, -0.1459147, -0.1637679, -9.890935
IMU2, 35492, 0.002585866, 0.001471825, 0.0201437, -0.1342697, -0.1377515, -9.504479
IMU, 35512, -0.0003558248, 0.0006446801, 0.01062667, -0.05017938, -0.199114, -9.891166
IMU2, 35512, 0.002632279, -0.0006806403, 0.01062895, -0.14639, -0.1356176, -9.591396
IMU, 35532, 0.0002516117, 0.0008705296, -0.006730504, -0.1297584, -0.2164924, -9.885708
IMU2, 35532, -0.002417807, 0.003218196, -0.009983134, -0.09908545, -0.1516644, -9.596488
MAG, 35549, -133, 239, 342, -94, -16, 98, 0, 0, 0
MAG2, 35549, -151, 219, 322, -21, 33, -551, 0, 0, 0
BARO, 35552, -0.06308835, 99684.57, 39.71, -0.09052063
CTUN, 35552, 0, 0, 0, 0, 0, -0.06, 0.00, 0.00, 0, 10
ATT, 35553, 0.00, -1.06, 0.00, -0.83, 249.93, 249.93, 0.28, 0.01
EKF1, 35553, -2.74, -0.83, 252.02, 0.001108499, -0.06111772, 0.1964604, 0.07407594, -0.05768755, 0.2181844, 0.00, 0.00, 0.00
EKF2, 35553, 50, 0, 0, 0.00, 0.00, 276, 55, 334, 94, 16, -98
EKF3, 35553, -0.04, 0.00, 0.05, -0.28, 0.14, -0.20, 0, 1, 0, 0.00
EKF4, 35553, 0.00, 0.06, 0.01, 0.00, 0.00, 0.00, 0.00, 0, 0, 0, 0
AHR2, 35553, -2.74, -0.83, 252.02, 138.97, 32.524214, -116.9664033
RCIN, 35553, 1505, 1506, 992, 1507, 1146, 1015, 993, 1504, 0, 0, 0, 0, 0, 0
RCOU, 35553, 1082, 1082, 1082, 1082, 1082, 1082, 1082, 1082
IMU, 35553, 0.0009847153, 0.0002081618, -0.008719269, -0.1348766, -0.159847, -9.858595
IMU2, 35553, -0.005454842, 0.003469869, -0.01102415, -0.1198977, -0.1091373, -9.659084
IMU, 35573, -0.0002826173, -0.001899676, -0.0001149094, -0.1429217, -0.1326028, -9.866817
IMU2, 35573, -0.004361147, -0.00335275, 0.005972743, -0.1888064, -0.1108843, -9.550051
IMU, 35592, -0.0001740307, -0.00109864, 0.005538034, -0.06244243, -0.1630597, -9.929909
IMU2, 35592, 0.003804043, 0.00171864, 0.00395349, -0.1678049, -0.1150317, -9.621599
IMU, 35613, -0.0009674318, 0.002775816, -0.001641463, -0.03180479, -0.1444649, -9.913627
IMU2, 35613, -5.842E-05, 0.004913919, -0.002850175, -0.05833006, -0.0611968, -9.503867
GPS, 3, 339606600, 1853, 6, 2.88, 32.5242164, -116.9664046, 0.00, 138.94, 0.04, 170.89, 0.19, 35630
IMU, 35634, -0.0004317015, 0.0007778984, -0.004479022, -0.1654912, -0.1686068, -9.893981
IMU2, 35634, -0.001879521, -7.307529E-05, -0.009851158, -0.1890484, -0.03656888, -9.554605
MAG, 35651, -133, 238, 341, -94, -16, 98, 0, 0, 0
MAG2, 35651, -140, 220, 329, -21, 33, -551, 0, 0, 0
DU32, 7, 936409
CURR, 35651, 0, 0, 1499, 365, 5161, 4.005684
POWR, 35651, 5.16, 5.04, 3
BARO, 35654, -0.09176487, 99684.86, 39.72, -0.07401317
CTUN, 35654, 0, 0, 0, 0, 0, -0.09, 0.00, 0.00, 0, 10
ATT, 35654, 0.00, -1.04, 0.00, -0.85, 249.94, 249.94, 0.03, 0.01
EKF1, 35654, -2.74, -0.83, 252.01, -0.02390523, -0.05378261, 0.199956, 0.1062883, -0.07998069, 0.2096377, 0.00, 0.00, 0.00
EKF2, 35654, 50, 0, 0, 0.00, 0.00, 276, 55, 334, 94, 16, -98
EKF3, 35654, 0.05, -0.02, 0.00, -0.31, 0.15, 0.08, 0, 0, -1, 0.00
EKF4, 35654, 0.00, 0.06, 0.00, 0.00, 0.00, 0.01, 0.00, 0, 0, 0, 0
AHR2, 35654, -2.74, -0.83, 252.01, 138.98, 32.5242143, -116.9664035
RCIN, 35654, 1506, 1506, 992, 1510, 1147, 1014, 993, 1504, 0, 0, 0, 0, 0, 0
RCOU, 35654, 1082, 1082, 1082, 1082, 1082, 1082, 1082, 1082
IMU, 35655, 0.0009155367, -0.002908336, 0.005802123, -0.1110123, -0.08513175, -9.892565
IMU2, 35655, 0.002068087, -0.005895663, 0.01243215, -0.1602211, -0.04174101, -9.539007
IMU, 35674, -0.0008498002, 0.0003930312, 0.006386586, -0.02057129, -0.1874778, -9.927777
IMU2, 35674, -0.002007626, 0.00213014, 0.005144555, -0.03857899, -0.1066946, -9.560683
IMU, 35694, -0.0005814768, 0.002522567, -0.01158333, -0.1557736, -0.1708369, -9.8643
IMU2, 35694, -0.002333183, 0.001051076, -0.01547092, -0.2119808, -0.145119, -9.50768
IMU, 35714, 0.0008414201, -0.004290527, -0.004057844, -0.1463273, -0.1289677, -9.8522
IMU2, 35714, 0.0006877854, 0.0006189309, -0.0001570582, -0.1206994, -0.1151611, -9.596627
IMU, 35734, 0.0003180299, 5.399808E-05, 0.01705166, 0.04417511, -0.1185908, -9.916309
IMU2, 35734, 0.00633404, 0.005301081, 0.02261678, -0.01659846, -0.02393174, -9.453454
MAG, 35752, -134, 237, 341, -94, -16, 98, 0, 0, 0
MAG2, 35752, -146, 226, 332, -21, 33, -551, 0, 0, 0
BARO, 35754, 0.05161774, 99683.29, 39.73, 0.005086544
CTUN, 35754, 0, 0, 0, 0, 0.01, 0.05, 0.00, 0.00, 0, 10
ATT, 35755, 0.00, -1.06, 0.00, -0.85, 249.96, 249.96, 0.03, 0.01
EKF1, 35755, -2.75, -0.82, 252.03, -0.05580828, -0.04945244, 0.2057952, 0.1345405, -0.10128, 0.19993, 0.00, 0.00, 0.00
EKF2, 35755, 50, 0, 0, 0.00, 0.00, 276, 55, 334, 94, 16, -98
EKF3, 35755, 0.05, -0.02, 0.00, -0.31, 0.15, 0.12, 1, 0, -1, 0.00
EKF4, 35755, 0.00, 0.06, 0.01, 0.00, 0.00, 0.00, 0.00, 0, 0, 0, 0
AHR2, 35755, -2.75, -0.82, 252.03, 138.99, 32.5242146, -116.9664037
RCIN, 35755, 1507, 1505, 993, 1507, 1146, 1015, 993, 1503, 0, 0, 0, 0, 0, 0
RCOU, 35755, 1082, 1082, 1082, 1082, 1082, 1082, 1082, 1082
IMU, 35755, -0.0009199642, 0.006367013, -0.003239997, -0.1666755, -0.2952451, -9.916384
IMU2, 35755, 0.0013211, 0.007814426, -0.008108757, -0.3505464, -0.2647224, -9.670007
IMU, 35775, 2.658553E-05, -0.003429743, -0.01136111, -0.2643995, -0.02116504, -9.859565
IMU2, 35775, -0.001210675, -0.0002499633, -0.003646296, -0.293577, 0.05063641, -9.552878
IMU, 35794, -0.0007913075, -0.003173888, 0.01278462, 0.0634042, -0.2047794, -9.865645
IMU2, 35794, 0.0008630455, 0.004572734, 0.01416136, 0.03691411, -0.1764647, -9.520808
GPS, 3, 339606800, 1853, 6, 2.88, 32.5242166, -116.9664046, 0.02, 138.95, 0.04, 170.89, 0.13, 35812
IMU, 35816, 0.0006758161, 0.005305408, -0.008618034, -0.08421463, -0.1960267, -9.967321
IMU2, 35816, 0.002343416, 0.008861028, -0.01039043, -0.1390588, -0.1737353, -9.58747
IMU, 35835, -0.0003927462, -0.003319258, 0.0003069635, -0.2961652, -0.07784379, -9.866179
IMU2, 35835, -0.002560358, -0.003116876, 0.004995346, -0.2912626, -0.03196299, -9.423885
MAG, 35853, -135, 237, 342, -94, -16, 98, 0, 0, 0
MAG2, 35853, -136, 221, 330, -21, 33, -551, 0, 0, 0
BARO, 35856, -0.02867652, 99684.14, 39.74, 0.2903086
CTUN, 35856, 0, 0, 0, 0, 0.02, -0.02, 0.00, 0.00, 0, 11
ATT, 35856, 0.00, -1.07, 0.00, -0.84, 249.97, 249.97, 0.02, 0.00
EKF1, 35856, -2.75, -0.81, 252.03, -0.08352062, -0.03746894, 0.2073212, 0.1560155, -0.1186612, 0.1692044, 0.00, 0.00, 0.00
EKF2, 35856, 50, 0, 0, 0.00, 0.00, 276, 55, 334, 94, 16, -98
EKF3, 35856, 0.04, -0.04, 0.06, -0.26, 0.11, 0.25, 1, 1, -1, 0.00
EKF4, 35856, 0.01, 0.05, 0.02, 0.01, 0.00, 0.00, 0.00, 0, 0, 0, 0
AHR2, 35856, -2.75, -0.81, 252.03, 139.02, 32.5242148, -116.9664039
RCIN, 35857, 1506, 1506, 992, 1506, 1147, 1014, 993, 1504, 0, 0, 0, 0, 0, 0
RCOU, 35857, 1082, 1082, 1082, 1082, 1082, 1082, 1082, 1082
IMU, 35857, -0.0004878957, -0.003263552, 0.01379756, 0.1323194, -0.1981048, -9.824754
IMU2, 35857, 0.002350211, -0.001727648, 0.0176976, 0.02201712, -0.1558689, -9.428961
IMU, 35876, 0.002792299, 0.009401081, -0.01634184, -0.12825, -0.2280113, -9.927341
IMU2, 35876, 0.003516596, 0.007955499, -0.01661892, -0.1695278, -0.1833266, -9.584274
RAD, 35880, 60, 0, 100, 24, 0, 21, 0
RAD, 35880, 60, 0, 100, 24, 0, 21, 0
IMU, 35897, -0.001054415, -0.004472493, 0.007998683, -0.3541757, 0.01559997, -9.869331
IMU2, 35897, -0.0002369732, -0.01253236, 0.009750895, -0.2835062, 0.07746983, -9.562799
IMU, 35917, -0.003695139, -0.006595515, -0.001944506, 0.1530782, -0.3687925, -9.896457
IMU2, 35917, 0.0006032437, -0.00586953, -0.002720885, 0.02688599, -0.3103009, -9.603009
IMU, 35937, 0.001449246, 0.008765113, -0.006518183, -0.04373021, 0.02445938, -9.854573
IMU2, 35937, 0.004417207, 0.008694507, 0.007032376, -0.1405419, 0.1166627, -9.682183
MAG, 35955, -134, 236, 341, -94, -16, 98, 0, 0, 0
MAG2, 35955, -139, 223, 329, -21, 33, -551, 0, 0, 0
BARO, 35958, 0.07742661, 99683, 39.75, 0.4089987
CTUN, 35958, 0, 0, 0, 0, 0.03, 0.07, 0.00, 0.00, 0, 11
ATT, 35958, 0.00, -1.08, 0.00, -0.82, 249.97, 249.97, 0.02, 0.01
EKF1, 35958, -2.76, -0.80, 252.03, -0.112261, -0.02788512, 0.2068458, 0.1695263, -0.1309978, 0.1627423, 0.00, 0.00, 0.00
EKF2, 35958, 50, 0, 0, 0.00, 0.00, 276, 55, 334, 94, 16, -98
EKF3, 35958, 0.04, -0.04, 0.06, -0.26, 0.11, 0.15, 0, 1, -1, 0.00
EKF4, 35958, 0.01, 0.05, 0.01, 0.00, 0.00, 0.00, 0.00, 0, 0, 0, 0
AHR2, 35958, -2.76, -0.80, 252.03, 139.02, 32.5242149, -116.966404
RCIN, 35958, 1506, 1506, 992, 1506, 1146, 1015, 993, 1503, 0, 0, 0, 0, 0, 0
RCOU, 35959, 1082, 1082, 1082, 1082, 1082, 1082, 1082, 1082
IMU, 35959, -0.0006593363, -0.003022019, 0.01319008, -0.3275234, -0.2688373, -9.914183
IMU2, 35959, -0.001667026, -0.00223745, 0.01193366, -0.3713415, -0.2219537, -9.517539
IMU, 35979, 0.002190184, -0.001222065, -0.01177596, 0.1551141, -0.09711782, -9.899997
IMU2, 35979, 0.007624201, 0.0007982552, -0.01079352, 0.08618867, -0.01194799, -9.569791
IMU, 35998, -0.0007041479, 0.004482254, 0.008965696, -0.2697975, -0.2038907, -9.899776
IMU2, 35998, -0.0006911047, 0.01327107, 0.01301006, -0.3483974, -0.1869702, -9.613665
GPS, 3, 339607000, 1853, 6, 2.88, 32.5242168, -116.9664046, 0.04, 138.95, 0.07, 170.89, 0.04, 36016
IMU, 36019, -0.002462411, -0.00413341, -0.003044684, -0.1120607, -0.1378635, -9.933923
IMU2, 36019, 0.003880892, -0.006827246, -0.00736551, -0.1297501, -0.05615699, -9.532146
IMU, 36038, 0.0004296973, -0.0001202337, -0.002626667, -0.06105722, -0.1560519, -9.828956
IMU2, 36038, -0.004094705, 0.009084202, -0.0001041219, -0.07810426, -0.0715034, -9.523289
MAG, 36057, -131, 237, 341, -94, -16, 98, 0, 0, 0
MAG2, 36057, -138, 221, 328, -21, 33, -551, 0, 0, 0
BARO, 36059, -0.07455896, 99684.66, 39.75, 0.2968144
CTUN, 36059, 0, 0, 0, 0, 0.05, -0.07, 0.00, 0.00, 0, 11
ATT, 36059, 0.00, -1.08, 0.00, -0.81, 249.98, 249.98, 0.02, 0.02
EKF1, 36059, -2.75, -0.79, 252.03, -0.1388612, -0.02081314, 0.202995, 0.1774329, -0.1405133, 0.1455587, 0.00, 0.00, 0.00
EKF2, 36059, 50, 0, 0, 0.00, 0.00, 276, 55, 334, 94, 16, -98
EKF3, 36059, -0.03, 0.01, 0.16, -0.23, 0.06, 0.24, -1, 2, 0, 0.00
EKF4, 36059, 0.02, 0.04, 0.02, 0.01, 0.01, 0.00, 0.00, 0, 0, 0, 0
AHR2, 36059, -2.75, -0.79, 252.03, 139.04, 32.5242149, -116.9664041
RCIN, 36059, 1506, 1506, 992, 1506, 1146, 1015, 992, 1504, 0, 0, 0, 0, 0, 0
RCOU, 36059, 1082, 1082, 1082, 1082, 1082, 1082, 1082, 1082
IMU, 36059, -0.0002155639, 0.001861826, 0.006660002, -0.002171023, -0.1615291, -9.892134
IMU2, 36059, -0.002702557, 0.007380623, 0.005408585, -0.05122864, -0.09826243, -9.58021
IMU, 36078, 0.0004262365, 0.004498046, -0.006380656, -0.1843362, -0.1831412, -9.902649
IMU2, 36078, 0.00452856, 0.01062705, -0.007237148, -0.1434049, -0.119482, -9.509357
IMU, 36099, -0.002634991, -0.006765236, 0.006572507, -0.1841035, -0.1197884, -9.901742
IMU2, 36099, -0.0009949505, -0.002830282, 0.00619249, -0.2095476, -0.02725804, -9.611325
IMU, 36118, -0.0008835103, 0.001738036, -0.002949636, 0.1056227, -0.2178593, -9.88263
IMU2, 36118, 0.004680123, 0.001242902, -0.002066866, 0.09349811, -0.07846165, -9.550237
IMU, 36139, 0.003965193, 0.0006848164, -0.0009567719, -0.3178615, -0.1024697, -9.895121
IMU2, 36139, 0.007050417, -0.001004867, 0.0006772801, -0.391807, 0.003417373, -9.534933
MAG, 36156, -134, 238, 342, -94, -16, 98, 0, 0, 0
MAG2, 36156, -139, 223, 327, -21, 33, -551, 0, 0, 0
BARO, 36159, -0.04014713, 99684.28, 39.77, 0.0659565
CTUN, 36159, 0, 0, 0, 0, 0.05, -0.04, 0.00, 0.00, 0, 11
ATT, 36159, 0.00, -1.06, 0.00, -0.82, 249.99, 249.99, 0.02, 0.01
EKF1, 36159, -2.74, -0.79, 252.02, -0.1575892, -0.01549621, 0.1995177, 0.1837015, -0.148843, 0.1515252, 0.00, 0.00, 0.00
EKF2, 36159, 50, 0, 0, 0.00, 0.00, 276, 55, 334, 94, 16, -98
EKF3, 36159, -0.03, 0.01, 0.16, -0.23, 0.06, 0.08, 1, 1, 0, 0.00
EKF4, 36159, 0.02, 0.04, 0.00, 0.00, 0.00, 0.00, 0.00, 0, 0, 0, 0
AHR2, 36159, -2.74, -0.79, 252.02, 139.03, 32.524215, -116.9664042
RCIN, 36160, 1506, 1506, 1002, 1506, 1146, 1016, 992, 1504, 0, 0, 0, 0, 0, 0
RCOU, 36160, 1082, 1082, 1082, 1082, 1082, 1082, 1082, 1082
IMU, 36160, -0.005728281, -0.002625089, 0.0006568953, 0.07804869, -0.2373932, -9.903533
IMU2, 36160, -0.005055396, -0.003438037, 0.004900191, 0.00854671, -0.1721877, -9.555028
IMU, 36179, 0.006687162, 0.001350353, -0.0005545234, -0.2262539, -0.2003572, -9.856659
IMU2, 36179, 0.008477457, 0.008993682, 0.002930209, -0.3312808, -0.1572167, -9.417213
IMU, 36200, -0.005286816, -0.0001694784, 0.005039289, 0.009802481, 0.02318271, -9.889607
IMU2, 36200, -0.003623717, 0.004687898, 0.007177677, -0.1022696, 0.005249739, -9.550614
GPS, 3, 339607200, 1853, 6, 2.88, 32.524217, -116.9664047, 0.05, 138.97, 0.09, 170.89, 0.09, 36217
IMU, 36221, 0.008122271, -0.0001805313, -0.001746292, -0.3302033, -0.372785, -9.91369
IMU2, 36221, 0.01834366, 0.003948748, 0.0006271303, -0.3142388, -0.2946949, -9.642729
IMU, 36240, -0.005414182, -0.002756538, -0.0003002146, 0.1878308, 0.1578975, -9.874901
IMU2, 36240, -0.00653171, 0.002692189, 0.00347307, 0.1532563, 0.1329172, -9.57708
MAG, 36258, -133, 237, 341, -94, -16, 98, 0, 0, 0
MAG2, 36258, -139, 223, 328, -21, 33, -551, 0, 0, 0
BARO, 36261, -0.02294122, 99684.12, 39.77, -0.1648341
CTUN, 36261, 0, 0, 0, 0, 0.06, -0.02, 0.00, 0.00, 0, 11
ATT, 36261, 0.00, -1.04, 0.00, -0.81, 249.99, 249.99, 0.03, 0.01
EKF1, 36261, -2.72, -0.78, 252.02, -0.1777, -0.01186284, 0.1969047, 0.1877139, -0.1563258, 0.1559793, 0.00, 0.00, 0.00
EKF2, 36261, 50, 0, 0, 0.00, 0.00, 276, 55, 334, 94, 16, -98
EKF3, 36261, -0.15, 0.06, 0.11, -0.22, 0.05, 0.10, 0, 0, -1, 0.00
EKF4, 36261, 0.03, 0.04, 0.01, 0.00, 0.00, 0.01, 0.00, 0, 0, 0, 0
AHR2, 36261, -2.72, -0.78, 252.02, 139.03, 32.524215, -116.9664043
RCIN, 36261, 1506, 1506, 1013, 1505, 1146, 1016, 992, 1504, 0, 0, 0, 0, 0, 0
RCOU, 36261, 1082, 1082, 1082, 1082, 1082, 1082, 1082, 1082
IMU, 36261, 0.001109408, 0.006569635, -0.0001519155, -0.2603579, -0.4894812, -9.900734
IMU2, 36261, 0.01429315, 0.01188899, 0.001400553, -0.3983999, -0.4133977, -9.661295
IMU, 36281, 0.0005118996, -0.004861986, -0.004366994, -0.03836744, 0.3842779, -9.932027
IMU2, 36281, -0.001169864, 0.003909122, 0.007158764, -0.01624572, 0.4636258, -9.600949
IMU, 36301, -0.001113094, 0.002814326, 0.005976578, -0.1231981, -0.6468751, -9.920933
IMU2, 36301, 0.007867694, 0.01253731, 0.007461831, -0.3297335, -0.5773803, -9.591933
EV, 15
IMU, 36321, 0.0071691, -0.002518889, -0.008908493, -0.1075032, 0.3333375, -9.92079
IMU2, 36321, 0.007907487, -0.004193015, -0.002759513, -0.11366, 0.4462023, -9.690178
IMU, 36342, -0.009419546, 0.0009965114, 0.007964587, -0.188183, -0.627005, -9.853947
IMU2, 36342, 0.001022328, 0.005306821, 0.003800813, -0.3678829, -0.6472158, -9.536672
MAG, 36358, -134, 237, 345, -94, -16, 98, 0, 0, 0
MAG2, 36358, -175, 211, 348, -21, 33, -551, 0, 0, 0
BARO, 36361, -0.1376473, 99685.33, 39.78, -0.241133
CTUN, 36361, 177, 0, 170, 0, 0.06, -0.13, 0.00, 0.00, 0, 11
ATT, 36361, 0.00, -1.00, 0.00, -0.80, 250.00, 250.00, 0.03, 0.01
EKF1, 36362, -2.67, -0.77, 252.01, -0.1882214, -0.002849769, 0.1934156, 0.1943956, -0.1640258, 0.1582721, 0.00, 0.00, 0.00
EKF2, 36362, 50, 0, 0, 0.00, 0.00, 276, 55, 334, 94, 16, -98
EKF3, 36362, -0.15, 0.06, 0.11, -0.22, 0.05, 0.13, 0, 1, 0, 0.00
EKF4, 36362, 0.03, 0.04, 0.01, 0.00, 0.00, 0.00, 0.00, 0, 0, 0, 0
AHR2, 36362, -2.67, -0.77, 252.01, 139.03, 32.5242151, -116.9664044
RCIN, 36362, 1505, 1506, 1076, 1504, 1147, 1015, 992, 1504, 0, 0, 0, 0, 0, 0
RCOU, 36362, 1171, 1197, 1171, 1128, 1206, 1163, 1136, 1163
IMU, 36362, 0.01063576, -0.006811834, -0.01845026, -0.01050028, 0.2136362, -9.945758
IMU2, 36362, 0.01259048, -0.003927749, -0.0193537, 0.08429503, 0.5298319, -9.562189
IMU, 36382, -0.01075189, 0.007479589, 0.01555397, -0.2600568, -0.7230557, -9.726642
IMU2, 36382, -0.006064167, 0.004341103, 0.01320128, -0.5166351, -0.8573154, -9.396603
EV, 28
IMU, 36402, 0.01278816, 0.001768641, -0.01149479, 0.150713, 0.1663394, -10.04259
IMU2, 36402, 0.009855989, 0.00336821, -0.005723979, 0.1963152, 0.3266742, -9.663323
GPS, 3, 339607400, 1853, 6, 2.88, 32.5242174, -116.9664047, 0.06, 138.97, 0.08, 170.89, 0.09999999, 36419
IMU, 36424, -0.01215099, -0.006512268, -0.01258094, -0.2042238, -0.4039779, -10.09943
IMU2, 36424, -0.002890848, -0.01007558, -0.01531956, -0.246151, -0.3748314, -9.968198
IMU, 36444, 0.007202379, -0.008214939, -0.01152594, -0.3240351, 0.2055696, -9.4385
IMU2, 36444, 0.004865225, -0.007959429, -0.01238336, -0.4525687, 0.3521006, -9.032862
MAG, 36462, -133, 236, 347, -94, -16, 98, 0, 0, 0
MAG2, 36462, -224, 211, 332, -21, 33, -551, 0, 0, 0
BARO, 36464, 0.065956, 99683.14, 39.79, -0.1727545
CTUN, 36464, 295, 0, 272, 0, 0.06, 0.06, 0.00, 0.00, 0, 11
ATT, 36465, 0.00, -0.99, 0.00, -0.79, 250.00, 249.98, 0.06, 0.01
EKF1, 36465, -2.64, -0.76, 251.99, -0.1928176, -0.003459886, 0.1940057, 0.2004168, -0.168365, 0.1733417, 0.00, 0.00, 0.00
EKF2, 36465, 50, 0, 0, 0.00, 0.00, 276, 55, 334, 94, 16, -98
EKF3, 36465, -0.24, -0.04, 0.09, -0.26, 0.03, 0.01, 0, 1, -4, 0.00
EKF4, 36465, 0.04, 0.05, 0.00, 0.00, 0.00, 0.03, 0.00, 0, 0, 0, 0
AHR2, 36465, -2.64, -0.76, 251.99, 139.01, 32.5242152, -116.9664044
RCIN, 36465, 1506, 1506, 1211, 1504, 1146, 1015, 993, 1503, 0, 0, 0, 0, 0, 0
RCOU, 36465, 1245, 1286, 1289, 1248, 1286, 1245, 1248, 1289
IMU, 36465, -0.003999025, 0.01599546, 0.003086431, -0.1251008, -0.7401544, -10.02837
IMU2, 36465, -0.005436441, 0.02321798, -0.006812986, -0.3655404, -0.5670448, -9.782852
IMU, 36484, 0.005963515, -0.002918459, 0.02248655, 0.01588054, -0.3984997, -10.17564
IMU2, 36484, 0.007793203, 0.003339149, 0.0269974, -0.1350566, -0.4303167, -9.922002
IMU, 36505, -0.002087541, -0.004209479, 0.01262646, 0.03127318, 0.248068, -9.857917
IMU2, 36505, 0.0003476068, 0.00374331, 0.04266935, 0.1175725, 0.1487038, -9.579238
IMU, 36524, -0.007064253, 0.0003114715, -0.01598017, 0.068886, 0.04882516, -9.858527
IMU2, 36524, -0.001887701, 0.0002474897, 0.0005233623, 0.04662859, 0.1424302, -9.553476
IMU, 36546, -0.002572561, 0.002024066, -0.01220195, 0.3032486, 0.2562415, -9.927492
IMU2, 36546, 0.0001933426, 0.006753005, 0.006836444, 0.3111721, 0.2699521, -9.633883
MAG, 36563, -132, 240, 349, -94, -16, 98, 0, 0, 0
MAG2, 36563, -257, 208, 327, -21, 33, -551, 0, 0, 0
BARO, 36566, 0.2867652, 99680.74, 39.79, 0.07928909
CTUN, 36566, 338, 0, 309, 0, 0.07, 0.28, 0.00, 0.00, 0, 11
ATT, 36567, 0.00, -0.99, 0.00, -0.73, 250.00, 249.98, 0.06, 0.02
EKF1, 36567, -2.60, -0.73, 251.96, -0.1932437, 0.0106982, 0.1894204, 0.2119741, -0.1688983, 0.1676422, 0.00, 0.00, 0.00
EKF2, 36567, 50, 0, 0, 0.00, 0.00, 276, 55, 334, 94, 16, -98
EKF3, 36567, -0.24, -0.04, 0.09, -0.26, 0.03, 0.22, -1, 2, -6, 0.00
EKF4, 36567, 0.04, 0.05, 0.02, 0.00, 0.01, 0.04, 0.00, 0, 0, 0, 0
AHR2, 36567, -2.60, -0.73, 251.96, 139.02, 32.5242153, -116.9664044
RCIN, 36567, 1505, 1506, 1260, 1503, 1147, 1014, 993, 1504, 0, 0, 0, 0, 0, 0
RCOU, 36568, 1298, 1337, 1338, 1295, 1339, 1296, 1297, 1336
IMU, 36570, 0.007544994, 0.004778979, -0.002387315, -0.004192134, -0.3229718, -9.945322
IMU2, 36570, 0.01454113, 0.009165574, -0.002131663, -0.01826203, -0.2445915, -9.6285
IMU, 36590, 0.004633822, 0.005258631, 0.001123846, 0.3117082, -0.1310892, -9.560727
IMU2, 36590, 0.01035423, 0.01372791, 0.0009199567, 0.1860079, -0.02772617, -9.101391
IMU, 36610, 0.01456503, 0.0167739, 0.004978932, 0.2338849, -0.2820629, -9.866378
IMU2, 36610, 0.007983454, 0.01968812, 0.004024807, 0.1717844, -0.05432558, -9.292671
GPS, 3, 339607600, 1853, 6, 2.88, 32.5242177, -116.9664047, 0.09, 138.98, 0.07, 170.89, -0.02, 36625
IMU, 36630, 0.008352026, 0.0002965499, -0.008761235, 0.01925498, -0.1712706, -9.777638
IMU2, 36630, 0.002110999, -0.0002808534, -0.01492932, -0.0007292032, 0.1086794, -9.545281
IMU, 36650, 0.003747471, -0.001150342, -0.00720792, 0.05057112, 0.1178111, -9.725587
IMU2, 36650, -0.007648759, -0.002602536, -0.002832215, 0.09797263, 0.2635475, -9.398922
MAG, 36665, -131, 239, 348, -94, -16, 98, 0, 0, 0
MAG2, 36665, -240, 202, 322, -21, 33, -551, 0, 0, 0
DU32, 7, 149881
CURR, 36665, 315, 1056, 1471, 1682, 5172, 5.986906
POWR, 36665, 5.17, 5.04, 3
BARO, 36668, 0.2609564, 99681, 39.80, 0.6452912
CTUN, 36668, 345, 0, 315, 0, 0.09999999, 0.26, 0.00, 0.00, 0, 12
ATT, 36668, 0.00, -0.96, 0.00, -0.68, 250.00, 249.99, 0.00, 0.02
EKF1, 36668, -2.53, -0.69, 251.95, -0.1947042, 0.01792412, 0.1781667, 0.2223871, -0.1683386, 0.1397818, 0.00, 0.00, 0.00
EKF2, 36668, 51, 0, 0, 0.00, 0.00, 276, 55, 334, 94, 16, -98
EKF3, 36668, -0.26, -0.03, 0.21, -0.28, 0.02, 0.45, -2, 0, -9, 0.00
EKF4, 36668, 0.05, 0.05, 0.04, 0.01, 0.00, 0.06, 0.00, 0, 0, 0, 0
AHR2, 36668, -2.53, -0.69, 251.95, 139.05, 32.5242153, -116.9664044
RCIN, 36668, 1505, 1505, 1268, 1503, 1146, 1016, 992, 1504, 0, 0, 0, 0, 0, 0
RCOU, 36668, 1310, 1357, 1339, 1288, 1359, 1308, 1290, 1337
IMU, 36671, -0.01300439, -0.005903894, 0.004575241, 0.07874139, 0.02972887, -9.776424
IMU2, 36671, -0.02758162, -0.005884878, 0.01725649, 0.002121568, 0.07107341, -9.54105
IMU, 36690, -0.01202222, -0.0175663, 0.007693226, -0.02870902, 0.08078827, -10.21023
IMU2, 36690, -0.01156422, -0.01568364, 0.0174549, 0.09145892, 0.1891159, -9.755368
IMU, 36710, -0.002741201, 0.002446001, 0.01537181, -0.05793618, -0.003446586, -9.874922
IMU2, 36710, -0.003599767, -0.0007249266, 0.03312258, -0.7344277, -0.1664226, -9.872704
IMU, 36730, -0.01577739, -0.0170751, 0.01484258, -0.2547649, -0.4463418, -10.09032
IMU2, 36730, -0.03381239, -0.04144338, 0.01146349, -0.5231043, -0.3559935, -9.924136
IMU, 36750, 0.01651312, 0.00554828, 0.01220019, -0.3257311, -0.4489911, -10.00817
IMU2, 36750, 0.01773572, 0.007845376, 0.01849239, -0.3536878, -0.3536437, -9.595778
MAG, 36766, -133, 238, 348, -94, -16, 98, 0, 0, 0
MAG2, 36766, -264, 207, 338, -21, 33, -551, 0, 0, 0
BARO, 36769, 0.2523534, 99681.12, 39.80, 1.068107
CTUN, 36769, 361, 0, 329, 0, 0.12, 0.25, 0.00, 0.00, 0, 12
ATT, 36770, 0.00, -0.96, 0.00, -0.67, 250.00, 250.07, 0.00, 0.01
EKF1, 36770, -2.47, -0.67, 252.00, -0.1953629, 0.02717081, 0.15633, 0.2372833, -0.1666566, 0.1121618, 0.00, 0.00, 0.00
EKF2, 36770, 51, 0, 0, 0.00, 0.00, 276, 55, 334, 94, 16, -98
EKF3, 36770, -0.26, -0.03, 0.21, -0.28, 0.02, 0.41, -1, 0, -8, 0.00
EKF4, 36770, 0.05, 0.05, 0.03, 0.00, 0.00, 0.05, 0.00, 0, 0, 0, 0
AHR2, 36770, -2.47, -0.67, 252.00, 139.07, 32.5242155, -116.9664044
RCIN, 36770, 1507, 1505, 1304, 1504, 1147, 1015, 992, 1504, 0, 0, 0, 0, 0, 0
RCOU, 36770, 1327, 1400, 1356, 1270, 1407, 1320, 1276, 1350
IMU, 36772, -0.01524186, -0.005694527, -0.0001410032, -0.08865551, 0.5080622, -9.960612
IMU2, 36772, -0.01877077, -0.001682531, 0.008182563, -0.02348399, 0.7061383, -9.563503
RAD, 36774, 60, 0, 100, 21, 0, 21, 0
IMU, 36791, 0.0002284423, 0.01643899, 0.01471491, -0.2996503, 0.3699384, -9.920637
IMU2, 36791, 0.01202391, 0.0308208, 0.03955303, -0.2537958, 0.4747994, -10.05237
RAD, 36794, 60, 0, 100, 21, 0, 21, 0
IMU, 36812, 0.004453411, 0.006534427, 0.02261757, -0.508965, 0.1503953, -9.724918
IMU2, 36812, 0.01011275, 0.01377587, 0.03416766, -0.7010007, -0.1056581, -9.251857
GPS, 3, 339607800, 1853, 6, 2.88, 32.5242181, -116.9664048, 0.13, 138.96, 0.06, 170.89, 0.11, 36827
IMU, 36832, 0.005713364, -0.00329783, 0.01337472, -0.5400069, -0.3583606, -10.09531
IMU2, 36832, 0.01532302, -0.008098602, 0.01789599, -0.5272692, -0.4063619, -9.777688
IMU, 36852, 0.03794787, -0.01449825, 0.01198179, -0.1813947, -0.4798371, -10.08695
IMU2, 36852, 0.05052523, -0.02485484, 0.01597901, -0.2454911, -0.2959622, -9.794716
MAG, 36868, -133, 239, 348, -94, -16, 98, 0, 0, 0
MAG2, 36868, -269, 207, 339, -21, 33, -551, 0, 0, 0
BARO, 36870, 0.2093386, 99681.57, 39.81, 0.8491639
CTUN, 36870, 388, 0, 353, 0, 0.14, 0.20, 0.00, 0.00, 0, 13
ATT, 36871, 0.00, -0.93, 0.00, -0.63, 250.00, 250.16, 0.03, 0.01
EKF1, 36871, -2.40, -0.61, 252.06, -0.1854298, 0.03446948, 0.1396443, 0.2502754, -0.1655845, 0.0891211, 0.00, 0.00, 0.00
EKF2, 36871, 50, 0, 0, 0.00, 0.00, 276, 55, 334, 94, 16, -98
EKF3, 36871, -0.24, 0.04, 0.07, -0.30, 0.02, 0.38, 0, 1, -8, 0.00
EKF4, 36871, 0.04, 0.06, 0.03, 0.00, 0.00, 0.05, 0.00, 0, 0, 0, 0
AHR2, 36871, -2.40, -0.61, 252.06, 139.1, 32.5242156, -116.9664044
RCIN, 36871, 1506, 1506, 1317, 1504, 1147, 1014, 993, 1504, 0, 0, 0, 0, 0, 0
RCOU, 36871, 1385, 1463, 1326, 1286, 1444, 1404, 1267, 1345
IMU, 36874, 0.006681303, -0.0237848, 0.04406982, 0.3525836, -0.366137, -9.418902
IMU2, 36874, 0.00892695, -0.03591179, 0.05341377, 0.2233363, -0.4225396, -9.113895
IMU, 36893, -0.01375406, 0.0141908, 0.02472219, -0.3466625, -0.8957275, -10.46585
IMU2, 36893, 6.864592E-05, 0.03270341, 0.02276744, -0.2140337, -0.1823099, -9.985126
IMU, 36913, 0.0136519, 0.005546071, -0.0007526102, -0.04661863, 0.4423457, -10.1502
IMU2, 36913, 0.01156657, -0.003883548, -0.00371746, 0.06148636, 0.6275535, -9.837949
IMU, 36933, -0.02882582, 0.004456306, 0.01045605, 0.1873264, 0.4824665, -10.02573
IMU2, 36933, -0.03546892, 0.006414682, 0.01657316, 0.3899113, 0.5718238, -9.795284
IMU, 36953, 0.02065702, -0.002192792, 0.03522272, -0.01492066, -0.4332088, -9.603389
IMU2, 36953, 0.02364224, -0.008723132, 0.04240177, -0.07550013, -0.3336274, -9.283179
MAG, 36969, -134, 240, 349, -94, -16, 98, 0, 0, 0
MAG2, 36969, -269, 200, 334, -21, 33, -551, 0, 0, 0
BARO, 36971, 0.09463253, 99682.83, 39.81, 0.1938431
CTUN, 36971, 397, 0, 360, 0, 0.16, 0.09, 0.00, 0.00, 0, 13
ATT, 36971, 0.00, -0.92, 0.00, -0.66, 250.00, 250.29, 0.03, 0.01
EKF1, 36971, -2.34, -0.62, 252.17, -0.1832906, 0.03370949, 0.1355605, 0.2673395, -0.1668118, 0.07330022, 0.00, 0.00, 0.00
EKF2, 36971, 50, 0, 0, 0.00, 0.00, 276, 55, 334, 94, 16, -98
EKF3, 36971, -0.24, 0.04, 0.07, -0.30, 0.02, 0.31, 0, 1, -9, 0.00
EKF4, 36971, 0.04, 0.06, 0.02, 0.00, 0.01, 0.06, 0.00, 0, 0, 0, 0
AHR2, 36971, -2.34, -0.62, 252.17, 139.11, 32.5242158, -116.9664044
RCIN, 36971, 1506, 1506, 1327, 1503, 1147, 1015, 992, 1504, 0, 0, 0, 0, 0, 0
RCOU, 36972, 1356, 1412, 1371, 1349, 1395, 1373, 1332, 1388
IMU, 36974, -0.001518749, -0.004536039, 0.01952135, -0.1943374, -0.6920904, -9.779172
IMU2, 36974, -0.01767227, -0.009076566, 0.009401903, -0.3583131, -0.5295522, -9.653671
IMU, 36995, -0.01731592, -0.01600093, 0.01147111, 0.1570106, 0.4317229, -10.26438
IMU2, 36995, -0.01945089, -0.01059958, 0.01053974, 0.438169, 0.6969457, -10.24442
IMU, 37014, 0.01811321, 0.03583758, 0.02136372, 0.1248335, -0.1628462, -10.08646
IMU2, 37014, 0.04025048, 0.05635934, 0.01449981, -0.09404612, -0.2089829, -9.847763
GPS, 3, 339608000, 1853, 6, 2.88, 32.5242184, -116.9664048, 0.17, 138.98, 0.18, 170.89, 0.2, 37030
IMU, 37035, 0.0398824, -0.01481116, 0.009098946, 0.1403813, 0.02832264, -9.380385
IMU2, 37035, 0.05041213, -0.02812539, 0.01685378, 0.1582047, 0.185522, -9.009818
IMU, 37056, -0.02208787, -0.001545073, 0.03429063, -0.4440399, -0.3068047, -10.52634
IMU2, 37056, -0.03003073, 0.009554859, 0.06010605, -0.4139811, -0.2558184, -10.18797
MAG, 37071, -132, 238, 348, -94, -16, 98, 0, 0, 0
MAG2, 37071, -273, 210, 333, -21, 33, -551, 0, 0, 0
BARO, 37074, 0.1950004, 99681.74, 39.82, -0.2813794
CTUN, 37074, 403, 0, 366, 0, 0.17, 0.19, 0.00, 0.00, 0, 13
ATT, 37074, 0.00, -0.89, 0.00, -0.66, 250.00, 250.45, 0.06, 0.01
EKF1, 37074, -2.27, -0.61, 252.31, -0.1784063, 0.0257544, 0.1285635, 0.2847538, -0.1702253, 0.07069313, 0.00, 0.00, 0.00
EKF2, 37074, 48, 0, 0, 0.00, 0.00, 276, 55, 334, 94, 16, -98
EKF3, 37074, -0.34, 0.13, -0.05, -0.31, 0.03, 0.17, -1, 1, -10, 0.00
EKF4, 37074, 0.05, 0.06, 0.01, 0.00, 0.00, 0.06, 0.00, 0, 0, 0, 0
AHR2, 37074, -2.27, -0.61, 252.31, 139.11, 32.5242159, -116.9664045
RCIN, 37074, 1505, 1506, 1334, 1503, 1146, 1015, 992, 1504, 0, 0, 0, 0, 0, 0
RCOU, 37075, 1350, 1398, 1384, 1381, 1375, 1373, 1358, 1407
IMU, 37077, 0.007097058, 0.01669612, 0.06022992, -0.3347397, -0.6076465, -9.633275
IMU2, 37077, 0.0181822, 0.01230559, 0.07757591, -0.3719669, -0.5083013, -9.40956
IMU, 37096, -0.01525038, -0.03255164, 0.04290356, 0.05538284, -0.03244163, -9.671407
IMU2, 37096, -0.04264297, -0.04019325, 0.03423826, 0.2158526, -0.01091158, -9.325773
IMU, 37116, 0.001104843, 0.02736979, 0.06156632, -0.1490169, 0.1012627, -10.66017
IMU2, 37116, 0.01256147, 0.04195766, 0.08320573, -0.3786584, 0.09971964, -10.27337
IMU, 37137, 0.01402562, -0.01454986, 0.04963285, -0.2640299, -0.6002221, -9.804747
IMU2, 37137, 0.01840737, -0.007314712, 0.03935869, -0.2790347, -0.4961434, -9.428002
UBX1, 37152, 0, 118, 7, 1
UBX2, 37152, 0, -18, 105, 36, 121
IMU, 37157, -0.01173994, 0.05673794, 0.03546041, 0.09766137, 0.6592036, -9.960642
IMU2, 37157, -0.0168169, 0.07822474, 0.04712606, 0.2055516, 0.6153666, -9.569156
MAG, 37173, -132, 238, 350, -94, -16, 98, 0, 0, 0
MAG2, 37173, -274, 207, 327, -21, 33, -551, 0, 0, 0
BARO, 37175, 0.2093386, 99681.57, 39.82, -0.3685632
CTUN, 37175, 420, 0, 380, 0, 0.19, 0.20, 0.00, 0.00, 0, 13
ATT, 37175, 0.00, -0.86, 0.00, -0.59, 250.00, 250.76, 0.06, 0.00
EKF1, 37175, -2.19, -0.53, 252.60, -0.1548865, 0.02444828, 0.1291339, 0.3097451, -0.177345, 0.06305966, 0.00, 0.00, 0.00
EKF2, 37175, 48, 0, 0, 0.00, 0.00, 276, 55, 334, 94, 16, -98
EKF3, 37175, -0.34, 0.13, -0.05, -0.31, 0.03, 0.26, 0, 3, -9, 0.00
EKF4, 37175, 0.05, 0.06, 0.02, 0.00, 0.02, 0.06, 0.00, 0, 0, 0, 0
AHR2, 37175, -2.19, -0.53, 252.60, 139.12, 32.5242161, -116.9664045
RCIN, 37175, 1506, 1506, 1354, 1504, 1146, 1015, 992, 1504, 0, 0, 0, 0, 0, 0
RCOU, 37176, 1334, 1443, 1423, 1352, 1424, 1353, 1333, 1441
IMU, 37178, -0.008893261, 0.05107889, 0.06750564, -0.04319204, 0.2093196, -9.795073
IMU2, 37178, 0.003152415, 0.06582505, 0.07839142, -0.164956, -0.110779, -9.492065
IMU, 37198, 0.04712657, -0.07759546, 0.06278428, 0.322169, -0.9945366, -9.614188
IMU2, 37198, 0.05778859, -0.1025567, 0.06724347, 0.1633792, -0.9661977, -9.347132
GPS, 3, 339608200, 1853, 6, 2.88, 32.5242188, -116.9664049, 0.19, 138.95, 0.04, 170.89, 0.08, 37214
IMU, 37218, 0.0341534, -0.0112589, 0.03564889, -0.4428198, 0.2576106, -10.54191
IMU2, 37218, 0.02775839, 0.009732801, 0.03036742, -0.4811315, 0.4221739, -10.16428
IMU, 37238, -0.02319484, 0.1129399, 0.03653269, -0.5454893, 0.1016499, -9.560779
IMU2, 37238, -0.01029655, 0.1297675, 0.05519959, -0.4509296, 0.1941458, -9.412387
IMU, 37259, -0.02612799, 0.00832863, 0.04001948, 0.6082738, -0.487811, -10.06216
IMU2, 37259, -0.02585386, -0.01466262, 0.04743096, 0.3309128, -0.4422136, -9.729699
MAG, 37274, -128, 241, 350, -94, -16, 98, 0, 0, 0
MAG2, 37274, -304, 201, 331, -21, 33, -551, 0, 0, 0
BARO, 37277, 0.2494857, 99681.14, 39.84, -0.07905034
CTUN, 37277, 433, 0, 392, 0, 0.2, 0.24, 0.00, 0.00, 0, 14
ATT, 37277, 0.00, -0.82, 0.00, -0.48, 250.00, 251.06, 0.06, 0.02
EKF1, 37277, -2.08, -0.42, 252.88, -0.1463651, 0.01584197, 0.1182233, 0.332904, -0.1837064, 0.05249711, 0.00, 0.00, 0.00
EKF2, 37277, 49, 0, 0, 0.00, 0.00, 276, 55, 334, 94, 16, -98
EKF3, 37277, -0.22, 0.07, 0.05, -0.33, 0.03, 0.27, -3, 4, -12, 0.00
EKF4, 37277, 0.03, 0.06, 0.02, 0.02, 0.02, 0.08, 0.00, 0, 0, 0, 0
AHR2, 37277, -2.08, -0.42, 252.88, 139.13, 32.5242163, -116.9664046
RCIN, 37277, 1506, 1506, 1368, 1504, 1146, 1015, 992, 1504, 0, 0, 0, 0, 0, 0
RCOU, 37278, 1427, 1450, 1361, 1389, 1425, 1452, 1364, 1387
IMU, 37281, 0.04898452, 0.04871257, 0.06056261, -0.3779669, 0.183551, -10.76912
IMU2, 37281, 0.07070354, 0.1048901, 0.06120355, -0.6576532, 0.1996713, -10.44988
IMU, 37301, 0.09876193, 0.01708227, 0.04100304, 0.1444959, 0.2605166, -9.951411
IMU2, 37301, 0.09660552, 0.00996929, 0.04434111, 0.2730752, 0.2066723, -9.666999
IMU, 37320, 0.09101328, 0.01605141, 0.04672997, 0.4257303, 0.3798407, -10.18158
IMU2, 37320, 0.1030008, 0.02356829, 0.05605557, 0.4865004, 0.3580273, -10.0868
IMU, 37340, 0.1034105, 0.06558446, 0.04916535, -0.3126426, -0.8324303, -9.63408
IMU2, 37340, 0.1078516, 0.06736006, 0.0433826, -0.338373, -0.5978377, -9.829266
IMU, 37361, 0.06608559, 0.1055999, 0.00356465, -0.0871713, -0.4689693, -9.983453
IMU2, 37361, 0.04669145, 0.1129701, 0.001863152, -0.1214694, 0.4172783, -9.961157
MAG, 37377, -131, 246, 349, -94, -16, 98, 0, 0, 0
MAG2, 37377, -296, 213, 336, -21, 33, -551, 0, 0, 0
BARO, 37379, -0.1204414, 99685.14, 39.84, 0.1004099
CTUN, 37379, 456, 0, 411, 0, 0.22, -0.12, 0.00, 0.00, 0, 16
ATT, 37380, 0.00, -0.36, 0.00, -0.11, 250.00, 251.31, 0.06, 0.01
EKF1, 37380, -1.53, -0.08, 253.10, -0.1253589, 0.01038426, 0.09161131, 0.3562025, -0.1903465, 0.03562516, 0.00, 0.00, 0.00
EKF2, 37380, 49, 0, 0, 0.00, 0.00, 276, 55, 334, 94, 16, -98
EKF3, 37380, -0.22, 0.07, 0.05, -0.33, 0.03, 0.31, 0, 3, -13, 0.00
EKF4, 37380, 0.03, 0.06, 0.02, 0.00, 0.02, 0.08, 0.00, 0, 0, 0, 0
AHR2, 37380, -1.53, -0.08, 253.10, 139.15, 32.5242165, -116.9664047
RCIN, 37380, 1506, 1506, 1395, 1504, 1146, 1015, 993, 1503, 0, 0, 0, 0, 0, 0
RCOU, 37380, 1349, 1438, 1492, 1424, 1428, 1359, 1413, 1503
IMU, 37382, 0.04141924, 0.1377175, 0.03319674, 0.01665401, 1.035852, -10.15598
IMU2, 37382, 0.06941967, 0.1580238, 0.07970954, 0.318395, 0.9126661, -9.945635
IMU, 37402, 0.1122885, 0.1202816, 0.05199522, 0.2821771, -1.097155, -9.317508
IMU2, 37402, 0.1350407, 0.1028431, 0.05627098, -0.01217556, -1.30788, -8.952314
GPS, 3, 339608400, 1853, 6, 2.88, 32.524219, -116.9664049, 0.22, 138.95, 0.02, 170.89, 0.22, 37417
IMU, 37422, 0.04726395, 0.1257673, -0.003065155, -0.3192249, -0.1755748, -10.59551
IMU2, 37422, 0.02944393, 0.1648184, -0.009879041, -0.342706, 0.2815166, -10.31811
IMU, 37443, 0.04592579, 0.1827002, 0.03126656, 0.3111322, 0.4131263, -9.541289
IMU2, 37443, 0.08143163, 0.1632297, 0.05997592, 0.7439218, -0.3480071, -9.120059
IMU, 37463, 0.08489208, 0.1363477, 0.03135916, 0.2412061, -0.8557085, -9.795396
IMU2, 37463, 0.04949696, 0.1501076, 0.004582401, -0.3267438, -0.7756364, -10.01527
MAG, 37478, -133, 245, 345, -94, -16, 98, 0, 0, 0
MAG2, 37478, -309, 223, 326, -21, 33, -551, 0, 0, 0
BARO, 37482, 0.1950004, 99681.71, 39.84, -0.1766095
CTUN, 37482, 462, 0, 417, 0, 0.22, 0.19, 0.00, 0.00, 0, 16
ATT, 37482, 0.00, 0.03, 0.03, 0.74, 250.00, 251.50, 0.02, 0.02
EKF1, 37482, -1.06, 0.76, 253.27, -0.11449, 0.003441359, 0.09200437, 0.3745817, -0.1950945, 0.05119325, 0.00, 0.00, 0.00
EKF2, 37482, 48, 0, 0, 0.00, 0.00, 276, 55, 334, 94, 16, -98
EKF3, 37482, -0.14, 0.04, -0.08, -0.31, 0.02, -0.07, -1, 1, -14, 0.00
EKF4, 37482, 0.02, 0.06, 0.00, 0.00, 0.00, 0.09, 0.00, 0, 0, 0, 0
AHR2, 37482, -1.06, 0.76, 253.27, 139.13, 32.5242167, -116.9664047
RCIN, 37482, 1504, 1558, 1402, 1503, 1146, 1015, 993, 1503, 0, 0, 0, 0, 0, 0
RCOU, 37483, 1456, 1483, 1401, 1392, 1474, 1465, 1384, 1410
IMU, 37486, 0.08609261, 0.1559064, 0.02648512, 0.5272197, 0.3555409, -9.908095
IMU2, 37486, 0.1084522, 0.1558594, 0.04742824, 0.7062991, 0.4239815, -9.58004
IMU, 37505, 0.0810014, 0.1142954, 0.02574767, -0.2430094, -0.7361989, -9.939529
IMU2, 37505, 0.08551255, 0.138791, 0.007588103, -0.4743503, -0.8046262, -9.558674
IMU, 37526, 0.03736359, 0.1483812, -0.005595874, 0.2771683, -0.4002581, -10.34835
IMU2, 37526, 0.03373144, 0.1552217, -0.0138154, 0.3767133, -0.1919768, -10.4795
IMU, 37545, 0.02516939, 0.1811634, 0.001702795, 0.1514505, 0.4294966, -10.75621
IMU2, 37545, 0.03287093, 0.2059507, 0.008874316, -0.1892501, 0.2312239, -9.968086
IMU, 37566, 0.03933831, 0.2488742, -0.005867021, 0.04244334, -0.8413486, -9.630304
IMU2, 37566, 0.04134872, 0.2447179, -0.02516279, 0.04212546, -0.885977, -9.408251
MAG, 37581, -141, 250, 342, -94, -16, 98, 0, 0, 0
MAG2, 37581, -310, 205, 332, -21, 33, -551, 0, 0, 0
BARO, 37584, 0.1175737, 99682.57, 39.85, -0.4910068
CTUN, 37584, 463, 0, 418, 0, 0.23, 0.11, 0.00, 0.00, 0, 19
ATT, 37584, 0.00, 0.33, 0.78, 1.85, 250.00, 251.54, 0.02, 0.02
EKF1, 37584, -0.71, 1.85, 253.28, -0.09660854, 0.01070664, 0.06494387, 0.3949282, -0.1997203, 0.04330283, 0.00, 0.00, 0.00
EKF2, 37584, 48, 0, 0, 0.00, 0.00, 276, 55, 334, 94, 16, -98
EKF3, 37584, -0.14, 0.04, -0.08, -0.31, 0.02, 0.23, 1, 4, -14, 0.00
EKF4, 37584, 0.02, 0.06, 0.02, 0.01, 0.03, 0.09, 0.00, 0, 0, 0, 0
AHR2, 37584, -0.71, 1.85, 253.28, 139.14, 32.5242169, -116.9664048
RCIN, 37584, 1506, 1576, 1403, 1503, 1147, 1015, 992, 1504, 0, 0, 0, 0, 0, 0
RCOU, 37584, 1411, 1425, 1461, 1439, 1429, 1407, 1444, 1457
IMU, 37587, 0.02994304, 0.3160217, -0.04123039, 0.0137397, 0.2241012, -10.79978
IMU2, 37587, 0.04252966, 0.3505471, -0.04496419, 0.06501651, 0.555294, -10.61706
IMU, 37607, 0.0453032, 0.2195636, -0.02063897, 0.6711914, -0.3922233, -8.714933
IMU2, 37607, 0.0552479, 0.1638077, -0.01956354, 0.6046818, -0.4825186, -8.256549
GPS, 3, 339608600, 1853, 6, 2.88, 32.5242193, -116.9664049, 0.24, 138.95, 0.11, 170.89, 0.23, 37623
IMU, 37627, 0.03690476, 0.01010524, -0.05540123, 0.02882447, -0.5467203, -10.23822
IMU2, 37627, 0.03653306, -0.01444515, -0.06578164, 0.3436424, 0.2682289, -10.65127
IMU, 37647, 0.0366757, 0.007441495, -0.0546188, 0.3383076, -0.05076903, -10.65894
IMU2, 37647, 0.0464749, 0.02761023, -0.04838111, 0.07527661, -0.2244306, -9.660583
IMU, 37667, -0.02395375, 0.05978104, -0.06224927, -0.2449411, -0.6612976, -9.983822
IMU2, 37667, -0.0463214, 0.07788207, -0.06637341, -0.340132, -0.7341906, -9.887959
MAG, 37682, -143, 251, 339, -94, -16, 98, 0, 0, 0
MAG2, 37682, -346, 224, 312, -21, 33, -551, 0, 0, 0
DU32, 7, 149881
CURR, 37682, 418, 4894, 1443, 2667, 5172, 12.14982
POWR, 37682, 5.17, 5.06, 3
BARO, 37685, 0.08029427, 99682.99, 39.86, -0.2338441
CTUN, 37685, 463, 0, 418, 0, 0.25, 0.08, 0.00, 0.00, 0, 22
ATT, 37685, 0.00, 0.43, 1.18, 2.54, 250.00, 251.26, 0.03, 0.03
EKF1, 37685, -0.57, 2.54, 252.98, -0.07277536, 0.02795375, 0.03914181, 0.4165443, -0.2033502, 0.0392184, 0.00, 0.00, 0.00
EKF2, 37685, 47, 0, 0, 0.00, 0.00, 276, 55, 334, 94, 16, -98
EKF3, 37685, -0.20, 0.07, -0.13, -0.29, 0.01, 0.16, -3, 2, -14, 0.00
EKF4, 37685, 0.04, 0.05, 0.01, 0.02, 0.01, 0.09, 0.00, 0, 0, 0, 0
AHR2, 37685, -0.57, 2.54, 252.98, 139.15, 32.5242171, -116.9664048
RCIN, 37685, 1505, 1519, 1403, 1503, 1146, 1015, 992, 1504, 0, 0, 0, 0, 0, 0
RCOU, 37686, 1317, 1364, 1553, 1494, 1374, 1307, 1505, 1545
IMU, 37688, -0.04496899, 0.1702338, -0.08981562, 0.3030312, 0.01446509, -10.72311
IMU2, 37688, -0.02982844, 0.1789404, -0.07900155, 0.7132828, 0.3001707, -10.42676
IMU, 37707, -0.00212648, 0.04745953, -0.07994814, 0.3405323, -0.2986482, -9.594324
IMU2, 37707, 0.005393062, 0.01401927, -0.09158202, 0.3707511, -0.1550721, -8.916862
IMU, 37728, -0.0005696379, -0.1569934, -0.09903143, 0.6872386, -0.5368015, -9.591327
IMU2, 37728, -0.007247895, -0.1913502, -0.1041028, 1.113539, -0.4531326, -9.400362
IMU, 37748, 0.01870014, -0.2603228, -0.1013051, 0.4338983, -0.03462122, -10.29726
IMU2, 37748, 0.01797037, -0.2576656, -0.09895457, -0.1225199, -0.07805383, -10.33412
IMU, 37768, -0.006564244, -0.0853762, -0.114391, -0.5378764, -0.6834423, -10.33003
IMU2, 37768, -0.008787213, -0.047959, -0.119234, -0.5870268, -0.5930541, -9.902599
MAG, 37783, -148, 249, 340, -94, -16, 98, 0, 0, 0
MAG2, 37784, -350, 225, 304, -21, 33, -551, 0, 0, 0
BARO, 37786, 0.3269123, 99680.28, 39.86, 0.1864228
CTUN, 37786, 463, 0, 418, 0, 0.26, 0.32, 0.00, 0.00, 0, 25
ATT, 37786, 0.00, 0.40, 0.78, 2.11, 250.00, 250.68, 0.03, 0.01
EKF1, 37786, -0.58, 2.12, 252.40, -0.04779068, 0.04747433, 0.01777327, 0.4437842, -0.206266, 0.03726278, 0.00, 0.00, 0.00
EKF2, 37786, 47, 0, 0, 0.00, 0.00, 276, 55, 334, 94, 16, -98
EKF3, 37786, -0.20, 0.07, -0.13, -0.29, 0.01, 0.12, 0, 2, -16, 0.00
EKF4, 37786, 0.04, 0.05, 0.01, 0.00, 0.01, 0.10, 0.00, 0, 0, 0, 0
AHR2, 37786, -0.58, 2.12, 252.40, 139.15, 32.5242173, -116.9664048
RCIN, 37786, 1475, 1506, 1403, 1502, 1147, 1015, 992, 1504, 0, 0, 0, 0, 0, 0
RCOU, 37786, 1398, 1397, 1485, 1456, 1412, 1384, 1471, 1470
IMU, 37789, -0.007142732, -0.03422388, -0.09490629, 0.4333412, 0.09508161, -10.49611
IMU2, 37789, -0.007992733, -0.0366101, -0.07780867, 0.5375487, 0.2204562, -10.21845
IMU, 37809, 0.03025809, 0.01351513, -0.0949188, 0.1542629, -0.4354466, -10.65165
IMU2, 37809, 0.0482429, 0.03992515, -0.1062872, 0.06855142, -0.1893597, -9.588791
GPS, 3, 339608800, 1853, 6, 2.88, 32.5242195, -116.9664048, 0.27, 139.02, 0.16, 170.89, 0.09999999, 37824
IMU, 37828, 0.05416449, -0.1442828, -0.1123571, 0.4753121, 0.1324631, -9.863371
IMU2, 37828, 0.03562737, -0.1893325, -0.09827556, 0.5975286, 0.2152849, -9.699117
IMU, 37850, -0.02481348, -0.2233081, -0.09707748, 0.5735849, -0.7150407, -10.60774
IMU2, 37850, -0.04063997, -0.2151637, -0.08887398, 0.3837597, -0.8876169, -10.22843
IMU, 37869, -0.227266, -0.1497931, -0.1252885, -0.832228, -0.8803194, -10.42814
IMU2, 37869, -0.2516817, -0.1303826, -0.127802, -0.9325315, -0.7062839, -9.807384
MAG, 37885, -148, 247, 342, -94, -16, 98, 0, 0, 0
MAG2, 37885, -323, 232, 304, -21, 33, -551, 0, 0, 0
BARO, 37887, -0.01147061, 99684, 39.87, 0.3044427
CTUN, 37887, 463, 0, 418, 0, 0.29, -0.01, 0.00, 0.00, 0, 29
ATT, 37887, -0.62, -0.05, 0.38, 1.53, 250.00, 250.04, 0.01, 0.01
EKF1, 37887, -0.97, 1.52, 251.75, -0.03583193, 0.06326426, -0.02603301, 0.4711592, -0.2061955, 0.00977433, 0.00, 0.00, 0.00
EKF2, 37887, 48, 0, 0, 0.00, 0.00, 276, 55, 334, 94, 16, -98
EKF3, 37887, -0.24, 0.08, -0.03, -0.28, 0.00, 0.36, 0, 3, -16, 0.00
EKF4, 37887, 0.04, 0.05, 0.03, 0.00, 0.02, 0.11, 0.00, 0, 0, 0, 0
AHR2, 37887, -0.97, 1.52, 251.75, 139.18, 32.5242176, -116.9664048
RCIN, 37887, 1432, 1505, 1403, 1503, 1147, 1014, 993, 1504, 0, 0, 0, 0, 0, 0
RCOU, 37888, 1258, 1517, 1610, 1326, 1538, 1233, 1351, 1591
IMU, 37890, -0.4353136, -0.07387163, -0.1159952, 0.6552364, -0.2400667, -9.737312
IMU2, 37890, -0.4560122, -0.06674252, -0.1102924, 0.6298546, -0.1685413, -9.466199
IMU, 37909, -0.4106513, -0.005288863, -0.1380235, -0.5209879, -0.4818891, -10.71159
IMU2, 37909, -0.3957497, 0.02432055, -0.1424939, -0.907442, -0.2234429, -10.1111
IMU, 37930, -0.2842904, -0.04702159, -0.1157531, 0.84994, 0.6158491, -10.03786
IMU2, 37930, -0.2588945, -0.08193687, -0.09006722, 1.10271, 0.5058415, -9.923501
RAD, 37932, 61, 0, 100, 21, 0, 25, 0
RAD, 37933, 61, 0, 100, 21, 0, 25, 0
IMU, 37949, -0.1224893, -0.1592351, -0.1027015, -0.1245799, -0.5401518, -10.36473
IMU2, 37949, -0.09841049, -0.1418335, -0.1100729, -0.4369986, -0.4855624, -10.43167
IMU, 37971, -0.1410439, -0.1363004, -0.1305074, 0.5013584, -0.1359966, -9.730084
IMU2, 37971, -0.1503569, -0.1193548, -0.1350405, 0.5329591, -0.1713343, -9.431035
MAG, 37985, -145, 236, 350, -94, -16, 98, 0, 0, 0
MAG2, 37985, -354, 209, 325, -21, 33, -551, 0, 0, 0
BARO, 37989, 0.065956, 99683.14, 39.87, 0.1437944
CTUN, 37989, 471, 0, 424, 0, 0.31, 0.06, 0.00, 0.00, 0, 32
ATT, 37989, -1.32, -1.49, 0.00, 1.05, 250.00, 249.34, 0.01, 0.02
EKF1, 37989, -2.40, 1.03, 251.05, -0.02319483, 0.0719027, -0.0511153, 0.5028754, -0.2040326, 0.004414044, 0.00, 0.00, 0.00
EKF2, 37989, 48, 0, 0, 0.00, 0.00, 276, 55, 334, 94, 16, -98
EKF3, 37989, -0.24, 0.08, -0.03, -0.28, 0.00, 0.01, -3, 4, -18, 0.00
EKF4, 37989, 0.04, 0.05, 0.00, 0.02, 0.02, 0.11, 0.00, 0, 0, 0, 0
AHR2, 37989, -2.40, 1.03, 251.05, 139.18, 32.5242179, -116.9664048
RCIN, 37989, 1505, 1504, 1412, 1503, 1147, 1015, 992, 1504, 0, 0, 0, 0, 0, 0
RCOU, 37990, 1356, 1560, 1539, 1291, 1575, 1337, 1310, 1524
IMU, 37992, -0.1298166, -0.1457365, -0.09593743, -0.4377079, -0.4945385, -10.27916
IMU2, 37992, -0.1246772, -0.138491, -0.07935538, -0.5541154, -0.05232286, -9.856241
IMU, 38013, -0.05443006, -0.09383283, -0.1194116, 0.6585115, 0.3818554, -10.53007
IMU2, 38013, -0.04722624, -0.07430382, -0.1214749, 0.7686089, 0.6385137, -10.28734
GPS, 3, 339609000, 1853, 6, 2.88, 32.5242197, -116.9664046, 0.31, 139.06, 0.04, 170.89, 0.05, 38028
IMU, 38032, 0.145825, -0.05954649, -0.09781177, -0.6513345, 0.2810861, -9.884137
IMU2, 38032, 0.176188, -0.04834109, -0.09667723, -0.6967924, 0.2885587, -9.608467
IMU, 38053, 0.2453194, -0.003096068, -0.1118947, 0.4242097, -0.2249705, -10.571
IMU2, 38053, 0.2549767, 0.01531479, -0.1236221, 0.3401968, -0.09715831, -10.46001
IMU, 38072, 0.292598, 0.04771109, -0.1010977, -0.1229168, -0.3715522, -10.20675
IMU2, 38072, 0.302001, 0.06207019, -0.09760706, -0.1513509, -0.3014191, -9.870038
MAG, 38089, -146, 233, 351, -94, -16, 98, 0, 0, 0
MAG2, 38089, -356, 188, 321, -21, 33, -551, 0, 0, 0
BARO, 38091, 0.07742661, 99683, 39.88, -0.2409474
CTUN, 38091, 470, 0, 424, 0, 0.33, 0.07, 0.00, 0.00, 0, 35
ATT, 38091, -0.83, -0.78, 0.00, 0.81, 250.00, 248.71, 0.08, 0.01
EKF1, 38091, -1.66, 0.76, 250.41, -0.01708041, 0.08583482, -0.07975844, 0.5252801, -0.196664, -0.008238244, 0.00, 0.00, 0.00
EKF2, 38091, 48, 0, 0, 0.00, 0.00, 276, 55, 334, 94, 16, -98
EKF3, 38091, -0.06, 0.00, -0.04, -0.25, -0.02, 0.07, -2, 4, -17, 0.00
EKF4, 38091, 0.01, 0.05, 0.00, 0.01, 0.03, 0.11, 0.00, 0, 0, 0, 0
AHR2, 38091, -1.66, 0.76, 250.41, 139.19, 32.5242181, -116.9664047
RCIN, 38091, 1506, 1505, 1411, 1504, 1146, 1016, 992, 1504, 0, 0, 0, 0, 0, 0
RCOU, 38091, 1453, 1504, 1461, 1344, 1534, 1419, 1377, 1428
IMU, 38094, 0.1242615, -0.116022, -0.1047989, 0.3940443, -0.5677187, -10.0826
IMU2, 38094, 0.1262078, -0.09567976, -0.108919, 0.1394504, -0.1837492, -10.1872
IMU, 38114, 0.06347719, -0.05410837, -0.08452293, -0.1056963, -0.4287302, -9.914042
IMU2, 38114, 0.05740499, -0.03719105, -0.08403112, -0.1717716, -0.4769977, -9.126158
IMU, 38135, -0.03131413, -0.07290965, -0.08300262, -0.01129063, 0.05706196, -10.34309
IMU2, 38135, -0.006270947, -0.03114125, -0.07334865, 0.01680231, 0.1071414, -10.12869
IMU, 38155, 0.08154932, -0.02710836, -0.05222811, -0.05820899, 0.06770167, -9.794299
IMU2, 38155, 0.1112919, -0.009557366, -0.05238647, 0.08644843, 0.08636093, -9.466863
IMU, 38176, 0.1010753, -0.05230247, -0.05073845, 0.01279104, -0.7131744, -10.51785
IMU2, 38176, 0.1339277, 0.004683729, -0.05480534, 0.04957879, -0.66893, -10.24696
MAG, 38190, -146, 236, 350, -94, -16, 98, 0, 0, 0
MAG2, 38190, -332, 199, 340, -21, 33, -551, 0, 0, 0
BARO, 38194, 0.02580887, 99683.56, 39.88, -0.4297765
CTUN, 38194, 470, 0, 424, 0, 0.35, 0.02, 0.00, 0.00, 0, 37
ATT, 38194, -0.43, -0.41, 0.00, 0.56, 250.00, 248.29, 0.08, 0.01
EKF1, 38194, -1.22, 0.50, 249.98, -0.02063636, 0.1009265, -0.08954302, 0.5453184, -0.1855596, -0.02255649, 0.00, 0.00, 0.00
EKF2, 38194, 48, 0, 0, 0.00, 0.00, 276, 55, 334, 94, 16, -98
EKF3, 38194, -0.06, 0.00, -0.04, -0.25, -0.02, 0.07, -2, 5, -16, 0.00
EKF4, 38194, 0.01, 0.05, 0.00, 0.01, 0.03, 0.10, 0.00, 0, 0, 0, 0
AHR2, 38194, -1.22, 0.50, 249.98, 139.21, 32.5242182, -116.9664046
RCIN, 38194, 1505, 1505, 1411, 1504, 1146, 1015, 992, 1504, 0, 0, 0, 0, 0, 0
RCOU, 38195, 1386, 1347, 1526, 1503, 1378, 1354, 1532, 1495
IMU, 38197, 0.1192027, 0.03644661, -0.05209411, 0.2362175, 0.03296309, -9.124127
IMU2, 38197, 0.1201062, 0.03384165, -0.04359973, 0.7419721, 0.07861543, -8.552717
GPS, 3, 339609200, 1853, 6, 2.88, 32.52422, -116.9664045, 0.35, 139.16, 0.08, 170.89, -0.22, 38215
IMU, 38218, 0.03127205, -0.06092992, -0.04746037, 0.02365277, -0.9451272, -10.39444
IMU2, 38218, 0.02385102, -0.07592756, -0.04290917, -0.3586562, -0.8368156, -10.33614
IMU, 38238, 0.03182122, 0.04908729, -0.0492024, -0.2635812, 0.3191661, -9.779498
IMU2, 38238, 0.04282566, 0.08031958, -0.04846579, -0.06004262, 0.4307873, -9.399498
IMU, 38257, 0.05214326, -0.01708636, -0.02368842, 0.4701604, -0.3050646, -9.637741
IMU2, 38257, 0.04953267, -0.03620934, -0.01259714, 0.5372847, -0.2306441, -9.349498
IMU, 38278, 0.07391332, 0.07663773, -0.03636061, -0.4086428, -0.7419893, -10.18976
IMU2, 38278, 0.08199564, 0.1397209, -0.05898848, 0.2501508, -0.1931202, -9.767798
MAG, 38293, -146, 237, 346, -94, -16, 98, 0, 0, 0
MAG2, 38293, -324, 195, 313, -21, 33, -551, 0, 0, 0
BARO, 38296, 0.1032355, 99682.74, 39.88, -0.215993
CTUN, 38296, 474, 0, 427, 0, 0.37, 0.10, 0.00, 0.00, 0, 36
ATT, 38296, -0.03, -0.09, 0.00, 0.63, 250.00, 248.07, 0.07, 0.02
EKF1, 38296, -0.88, 0.57, 249.74, -0.02607895, 0.09152137, -0.08427475, 0.5613989, -0.1802199, -0.0383222, 0.00, 0.00, 0.00
EKF2, 38296, 51, 0, 0, 0.00, 0.00, 276, 55, 334, 94, 16, -98
EKF3, 38296, -0.04, 0.15, 0.16, -0.23, -0.03, 0.01, -3, 4, -17, 0.00
EKF4, 38296, 0.03, 0.04, 0.00, 0.02, 0.03, 0.11, 0.00, 0, 0, 0, 0
AHR2, 38296, -0.88, 0.57, 249.74, 139.22, 32.5242184, -116.9664046
RCIN, 38296, 1505, 1505, 1415, 1504, 1147, 1015, 993, 1503, 0, 0, 0, 0, 0, 0
RCOU, 38297, 1440, 1435, 1470, 1416, 1465, 1411, 1446, 1440
IMU, 38299, 0.03785737, -0.04312561, -0.0214841, 0.7994958, 0.28237, -9.200225
IMU2, 38299, 0.04218318, -0.08850236, 0.003357679, 0.5022045, 0.1272271, -9.266616
IMU, 38319, 0.0808444, -0.04106132, -0.01219916, -0.5532692, -0.8737594, -10.14942
IMU2, 38319, 0.07973331, 0.006419085, -0.04261526, -0.4843897, -0.8024837, -9.875079
IMU, 38340, 0.008439362, 0.01434548, -0.02475541, 0.4984632, 0.1699756, -9.604753
IMU2, 38340, -0.005761124, 0.01125524, -0.02274027, 0.3960713, 0.2988405, -9.360778
IMU, 38359, 0.003695112, 0.08160526, 0.0002682898, -0.8761902, -0.2637449, -10.0686
IMU2, 38359, -0.00274439, 0.1257842, 0.009382818, -1.037023, -0.2653615, -9.780452
IMU, 38380, -0.02563193, 0.07583733, -0.01502103, 1.437475, -0.2881855, -9.852643
IMU2, 38380, -0.03295138, 0.06286655, -0.02078389, 1.793427, -0.2044888, -9.635771
MAG, 38394, -151, 240, 349, -94, -16, 98, 0, 0, 0
MAG2, 38394, -368, 214, 342, -21, 33, -551, 0, 0, 0
BARO, 38397, 0.2322799, 99681.33, 39.89, 0.04907723
CTUN, 38397, 575, 0, 532, 0, 0.39, 0.23, 0.00, 0.00, 0, 35
ATT, 38397, 0.00, 0.06, 0.00, 0.77, 250.00, 248.00, 0.07, 0.01
EKF1, 38397, -0.72, 0.72, 249.63, -0.02434064, 0.07306104, -0.08997597, 0.5769256, -0.1777381, -0.06016602, 0.00, 0.00, 0.00
EKF2, 38397, 51, 0, 0, 0.00, 0.00, 276, 55, 334, 94, 16, -98
EKF3, 38397, -0.04, 0.15, 0.16, -0.23, -0.03, 0.07, 0, 5, -16, 0.00
EKF4, 38397, 0.03, 0.04, 0.00, 0.00, 0.03, 0.10, 0.00, 0, 0, 0, 0
AHR2, 38397, -0.72, 0.72, 249.63, 139.25, 32.5242185, -116.9664045
RCIN, 38397, 1505, 1505, 1530, 1503, 1146, 1015, 992, 1504, 0, 0, 0, 0, 0, 0
RCOU, 38397, 1586, 1566, 1527, 1517, 1581, 1572, 1533, 1510
IMU, 38400, 0.02398804, 0.002034793, -0.008159393, -0.1034216, -0.06991256, -10.5345
IMU2, 38400, 0.04447046, 0.01965092, 0.01188507, -1.312323, 0.2546296, -10.67362
GPS, 3, 339609400, 1853, 6, 2.88, 32.5242203, -116.9664045, 0.39, 139.17, 0.09, 170.89, 0.12, 38417
IMU, 38420, 0.03837522, -0.01629342, 0.009935813, 1.717214, -0.4771405, -10.51557
IMU2, 38420, 0.02439778, -0.04954299, 0.01125814, 2.086158, -0.6248596, -10.25592
IMU, 38440, 0.05462044, -0.01028556, -0.008174404, -2.023547, -0.05316697, -12.56508
IMU2, 38440, 0.06318178, 0.0356837, -0.008897446, -1.666689, 0.1521611, -11.85634
IMU, 38460, -0.005918713, -0.04446571, 0.006588022, 1.725115, -0.2952256, -11.56852
IMU2, 38460, -0.01051161, -0.05857397, 0.0176677, 0.2373923, -0.2532945, -11.66189
IMU, 38480, -0.01277023, 0.05125638, -0.00561399, -0.9356115, -0.1281546, -12.66053
IMU2, 38480, -0.008158656, 0.09246762, -0.007102098, 0.4518876, 0.1040653, -11.63028
MAG, 38496, -148, 241, 353, -94, -16, 98, 0, 0, 0
MAG2, 38496, -504, 207, 375, -21, 33, -551, 0, 0, 0
BARO, 38498, 0.2236769, 99681.43, 39.89, 0.3159899
CTUN, 38498, 575, 0, 532, 0, 0.42, 0.22, 0.00, 0.00, 0, 52
ATT, 38498, 0.00, 0.13, 0.00, 0.76, 250.00, 248.03, 0.09, 0.02
EKF1, 38498, -0.63, 0.68, 249.65, -0.01308952, 0.0757192, -0.2677592, 0.5912465, -0.1707781, -0.08771414, 0.00, 0.00, 0.00
EKF2, 38499, 46, 0, 0, 0.00, 0.00, 276, 55, 334, 94, 16, -98
EKF3, 38499, -0.06, 0.00, -0.20, -0.22, -0.01, 0.18, -3, 4, -21, 0.00
EKF4, 38499, 0.03, 0.04, 0.01, 0.02, 0.03, 0.13, 0.00, 0, 0, 0, 0
AHR2, 38499, -0.63, 0.68, 249.65, 139.27, 32.5242187, -116.9664045
RCIN, 38499, 1505, 1505, 1531, 1504, 1146, 1015, 992, 1504, 0, 0, 0, 0, 0, 0
RCOU, 38499, 1523, 1583, 1577, 1514, 1583, 1523, 1514, 1577
IMU, 38501, -0.05592972, -0.00240754, 0.02586016, -0.1083646, -0.4230253, -12.27887
IMU2, 38501, -0.04727852, 0.005184822, 0.03642314, -1.290809, -0.4533145, -12.6472
IMU, 38521, -0.04018514, 0.1043487, 0.001071346, 1.341501, -0.05939941, -11.86269
IMU2, 38521, -0.04435299, 0.1105348, 0.00865024, 1.790993, 0.1816254, -11.28674
IMU, 38541, 0.03220813, 0.05570257, 0.02433419, 0.02282781, -0.2707357, -12.26363
IMU2, 38541, 0.09917752, 0.07963555, 0.01827286, 0.4418783, -0.3471877, -12.91345
IMU, 38562, 0.03747097, -0.0455106, 0.02540939, -0.9965375, 0.04050203, -12.48625
IMU2, 38562, 0.02267752, -0.04172251, 0.03628252, -1.600525, 0.08373904, -12.76628
IMU, 38581, 0.04598517, -0.05867691, 0.008660627, 1.935808, -0.6650996, -11.76816
IMU2, 38581, -0.01554477, -0.1088444, -0.0135088, 1.205038, -0.2602388, -11.3518
MAG, 38597, -151, 241, 352, -94, -16, 98, 0, 0, 0
MAG2, 38597, -430, 195, 322, -21, 33, -551, 0, 0, 0
BARO, 38600, 0.2867652, 99680.74, 39.90, 0.5736761
CTUN, 38600, 575, 0, 532, 0, 0.47, 0.28, 0.00, 0.00, 0, 76
ATT, 38600, 0.00, 0.14, 0.00, 0.86, 250.00, 248.15, 0.09, 0.01
EKF1, 38600, -0.60, 0.73, 249.77, 0.001915418, 0.0742081, -0.519511, 0.6084718, -0.1632007, -0.1337849, 0.00, 0.00, 0.00
EKF2, 38600, 46, 0, 0, 0.00, 0.00, 276, 55, 334, 94, 16, -98
EKF3, 38600, -0.06, 0.00, -0.20, -0.22, -0.01, 0.15, -1, 3, -25, 0.00
EKF4, 38600, 0.03, 0.04, 0.01, 0.01, 0.02, 0.17, 0.00, 0, 0, 0, 0
AHR2, 38600, -0.60, 0.73, 249.77, 139.32, 32.5242188, -116.9664044
RCIN, 38600, 1506, 1505, 1531, 1502, 1147, 1015, 992, 1504, 0, 0, 0, 0, 0, 0
RCOU, 38601, 1467, 1559, 1620, 1540, 1559, 1467, 1540, 1620
IMU, 38603, -0.03937604, -0.0198768, 0.03285961, -0.344645, -0.646064, -12.6947
IMU2, 38603, -0.0251314, 0.0008931644, 0.04681673, -0.2355996, -0.6004983, -12.52466
GPS, 3, 339609600, 1853, 6, 2.88, 32.5242206, -116.9664041, 0.49, 139.34, 0.06, 170.89, -0.57, 38620
IMU, 38623, -0.06247133, -0.04143134, 0.02127924, -0.6222597, 0.1157835, -13.14557
IMU2, 38623, -0.06800073, -0.03827839, 0.03100478, -0.7288948, 0.244879, -12.75106
IMU, 38643, -0.02342089, -0.03422472, -0.0164869, 1.487957, 0.04144273, -11.23222
IMU2, 38643, -0.02165205, -0.07724138, -0.02102966, 1.492236, 0.318749, -11.80587
