FMT, 128, 89, FMT, BBnNZ, Type,Length,Name,Format,Columns
FMT, 129, 31, PARM, QNf, TimeUS,Name,Value
FMT, 130, 50, GPS, QBIHBcLLeeEefB, TimeUS,Status,GMS,GWk,NSats,HDop,Lat,Lng,RAlt,Alt,Spd,GCrs,VZ,U
FMT, 132, 49, IMU, QffffffIIfBB, TimeUS,GyrX,GyrY,GyrZ,AccX,AccY,AccZ,ErrG,ErrA,Temp,GyHlt,AcHlt
FMT, 133, 75, MSG, QZ, TimeUS,Message
FMT, 134, 39, RCIN, Qhhhhhhhhhhhhhh, TimeUS,C1,C2,C3,C4,C5,C6,C7,C8,C9,C10,C11,C12,C13,C14
FMT, 135, 35, RCOU, Qhhhhhhhhhhhh, TimeUS,Ch1,Ch2,Ch3,Ch4,Ch5,Ch6,Ch7,Ch8,Ch9,Ch10,Ch11,Ch12
FMT, 137, 25, BARO, Qffcf, TimeUS,Alt,Press,Temp,CRt
FMT, 138, 17, POWR, QCCH, TimeUS,Vcc,VServo,Flags
FMT, 145, 45, CMD, QHHHfffffff, TimeUS,CTot,CNum,CId,Prm1,Prm2,Prm3,Prm4,Lat,Lng,Alt
FMT, 146, 20, RAD, QBBBBBHH, TimeUS,RSSI,RemRSSI,TxBuf,Noise,RemNoise,RxErrors,Fixed
FMT, 148, 39, CAM, QIHLLeeccC, TimeUS,GPSTime,GPSWeek,Lat,Lng,Alt,RelAlt,Roll,Pitch,Yaw
FMT, 164, 29, ARSP, Qffcff, TimeUS,Airspeed,DiffPress,Temp,RawPress,Offset
FMT, 166, 25, CURR, QhhhHfh, TimeUS,Throttle,Volt,Curr,Vcc,CurrTot,Volt2
FMT, 165, 27, ATT, QccccCCCC, TimeUS,DesRoll,Roll,DesPitch,Pitch,DesYaw,Yaw,ErrRP,ErrYaw
FMT, 167, 30, MAG, QhhhhhhhhhB, TimeUS,MagX,MagY,MagZ,OfsX,OfsY,OfsZ,MOfsX,MOfsY,MOfsZ,Health
FMT, 170, 13, MODE, QMB, TimeUS,Mode,ModeNum
FMT, 131, 50, GPS2, QBIHBcLLeeEefB, TimeUS,Status,GMS,GWk,NSats,HDop,Lat,Lng,RAlt,Alt,Spd,GCrs,VZ,U
FMT, 136, 49, IMU2, QffffffIIfBB, TimeUS,GyrX,GyrY,GyrZ,AccX,AccY,AccZ,ErrG,ErrA,Temp,GyHlt,AcHlt
FMT, 149, 49, IMU3, QffffffIIfBB, TimeUS,GyrX,GyrY,GyrZ,AccX,AccY,AccZ,ErrG,ErrA,Temp,GyHlt,AcHlt
FMT, 139, 29, AHR2, QccCfLL, TimeUS,Roll,Pitch,Yaw,Alt,Lat,Lng
FMT, 180, 27, POS, QLLff, TimeUS,Lat,Lng,Alt,RelAlt
FMT, 140, 29, SIM, QccCfLL, TimeUS,Roll,Pitch,Yaw,Alt,Lat,Lng
FMT, 141, 47, EKF1, QccCffffffccc, TimeUS,Roll,Pitch,Yaw,VN,VE,VD,PN,PE,PD,GX,GY,GZ
FMT, 142, 30, EKF2, Qbbbcchhhhhh, TimeUS,Ratio,AZ1bias,AZ2bias,VWN,VWE,MN,ME,MD,MX,MY,MZ
FMT, 143, 31, EKF3, Qcccccchhhc, TimeUS,IVN,IVE,IVD,IPN,IPE,IPD,IMX,IMY,IMZ,IVT
FMT, 144, 31, EKF4, QcccccccbbBBH, TimeUS,SV,SP,SH,SMX,SMY,SMZ,SVT,OFN,EFE,FS,TS,SS
FMT, 150, 34, TERR, QBLLHffHH, TimeUS,Status,Lat,Lng,Spacing,TerrH,CHeight,Pending,Loaded
FMT, 151, 18, UBX1, QBHBBH, TimeUS,Instance,noisePerMS,jamInd,aPower,agcCnt
FMT, 152, 16, UBX2, QBbBbB, TimeUS,Instance,ofsI,magI,ofsQ,magQ
FMT, 153, 24, UBX3, QBfff, TimeUS,Instance,hAcc,vAcc,sAcc
FMT, 171, 42, GRAW, QIHBBddfBbB, TimeUS,WkMS,Week,numSV,sv,cpMes,prMes,doMes,mesQI,cno,lli
FMT, 172, 24, GRXH, QdHbBB, TimeUS,rcvTime,week,leapS,numMeas,recStat
FMT, 173, 41, GRXS, QddfBBBHBBBBB, TimeUS,prMes,cpMes,doMes,gnss,sv,freq,lock,cno,prD,cpD,doD,trk
FMT, 154, 19, ESC1, Qcccc, TimeUS,RPM,Volt,Curr,Temp
FMT, 155, 19, ESC2, Qcccc, TimeUS,RPM,Volt,Curr,Temp
FMT, 156, 19, ESC3, Qcccc, TimeUS,RPM,Volt,Curr,Temp
FMT, 157, 19, ESC4, Qcccc, TimeUS,RPM,Volt,Curr,Temp
FMT, 158, 19, ESC5, Qcccc, TimeUS,RPM,Volt,Curr,Temp
FMT, 159, 19, ESC6, Qcccc, TimeUS,RPM,Volt,Curr,Temp
FMT, 160, 19, ESC7, Qcccc, TimeUS,RPM,Volt,Curr,Temp
FMT, 161, 19, ESC8, Qcccc, TimeUS,RPM,Volt,Curr,Temp
FMT, 162, 28, EKF5, QBhhhcccCC, TimeUS,normInnov,FIX,FIY,AFI,HAGL,offset,RI,meaRng,errHAGL
FMT, 168, 30, MAG2, QhhhhhhhhhB, TimeUS,MagX,MagY,MagZ,OfsX,OfsY,OfsZ,MOfsX,MOfsY,MOfsZ,Health
FMT, 169, 30, MAG3, QhhhhhhhhhB, TimeUS,MagX,MagY,MagZ,OfsX,OfsY,OfsZ,MOfsX,MOfsY,MOfsZ,Health
FMT, 174, 31, ACC1, QQfff, TimeUS,SampleUS,AccX,AccY,AccZ
FMT, 175, 31, ACC2, QQfff, TimeUS,SampleUS,AccX,AccY,AccZ
FMT, 176, 31, ACC3, QQfff, TimeUS,SampleUS,AccX,AccY,AccZ
FMT, 177, 31, GYR1, QQfff, TimeUS,SampleUS,GyrX,GyrY,GyrZ
FMT, 178, 31, GYR2, QQfff, TimeUS,SampleUS,GyrX,GyrY,GyrZ
FMT, 179, 31, GYR3, QQfff, TimeUS,SampleUS,GyrX,GyrY,GyrZ
FMT, 181, 35, PIDR, Qffffff, TimeUS,Des,P,I,D,FF,AFF
FMT, 182, 35, PIDP, Qffffff, TimeUS,Des,P,I,D,FF,AFF
FMT, 183, 35, PIDY, Qffffff, TimeUS,Des,P,I,D,FF,AFF
FMT, 184, 35, PIDA, Qffffff, TimeUS,Des,P,I,D,FF,AFF
FMT, 185, 35, PIDS, Qffffff, TimeUS,Des,P,I,D,FF,AFF
FMT, 163, 25, BAR2, Qffcf, TimeUS,Alt,Press,Temp,CRt
FMT, 186, 35, VIBE, QfffIII, TimeUS,VibeX,VibeY,VibeZ,Clip0,Clip1,Clip2
FMT, 187, 43, IMT, Qffffffff, TimeUS,DelT,DelvT,DelAX,DelAY,DelAZ,DelVX,DelVY,DelVZ
FMT, 188, 43, IMT2, Qffffffff, TimeUS,DelT,DelvT,DelAX,DelAY,DelAZ,DelVX,DelVY,DelVZ
FMT, 189, 43, IMT3, Qffffffff, TimeUS,DelT,DelvT,DelAX,DelAY,DelAZ,DelVX,DelVY,DelVZ
FMT, 190, 24, ORGN, QBLLe, TimeUS,Type,Lat,Lng,Alt
FMT, 191, 19, RPM, Qff, TimeUS,rpm1,rpm2
FMT, 25, 41, ATUN, QBBfffffff, TimeUS,Axis,TuneStep,Targ,Min,Max,RP,RD,SP,ddt
FMT, 26, 19, ATDE, Qff, TimeUS,Angle,Rate
FMT, 31, 22, PTUN, QBfHHH, TimeUS,Param,TunVal,CtrlIn,TunLo,TunHi
FMT, 12, 28, OF, QBffff, TimeUS,Qual,flowX,flowY,bodyX,bodyY
FMT, 5, 51, NTUN, Qffffffffff, TimeUS,DPosX,DPosY,PosX,PosY,DVelX,DVelY,VelX,VelY,DAccX,DAccY
FMT, 4, 39, CTUN, Qhhfffecchh, TimeUS,ThrIn,AngBst,ThrOut,DAlt,Alt,BarAlt,DSAlt,SAlt,DCRt,CRt
FMT, 6, 24, PM, QHHIhBH, TimeUS,NLon,NLoop,MaxT,PMT,I2CErr,INSErr
FMT, 29, 59, RATE, Qffffffffffff, TimeUS,RDes,R,ROut,PDes,P,POut,YDes,Y,YOut,ADes,A,AOut
FMT, 30, 27, MOTB, Qffff, TimeUS,LiftMax,BatVolt,BatRes,ThLimit
FMT, 10, 11, STRT, Q, TimeUS
FMT, 13, 12, EV, QB, TimeUS,Id
FMT, 20, 14, D16, QBh, TimeUS,Id,Value
FMT, 21, 14, DU16, QBH, TimeUS,Id,Value
FMT, 22, 16, D32, QBi, TimeUS,Id,Value
FMT, 23, 16, DU32, QBI, TimeUS,Id,Value
FMT, 24, 16, DFLT, QBf, TimeUS,Id,Value
FMT, 19, 13, ERR, QBB, TimeUS,Subsys,ECode
FMT, 32, 15, HELI, Qhh, TimeUS,DRRPM,ERRPM
MSG, 48946797, APM:Copter V3.3.2 (7f16e4d6)
MSG, 48946805, PX4: 34e1d543 NuttX: 7c5ef883
MSG, 48946846, PX4v2 00520037 30345106 36353832
MSG, 49485351, Frame: OCTA_QUAD
MSG, 49485360, New mission
STRT, 49485366
MODE, 49485368, AltHold, 2
ORGN, 49485520, 0, 41.4895587, -71.4224358, 18.21
ORGN, 49485523, 1, 41.4895488, -71.4224271, 18.78
EV, 50119967, 10
MODE, 50119970, AltHold, 2
BARO, 50122477, 0.2593371, 102543.8, 26.81, -0.5715781
CTUN, 50122486, 0, 0, 87, 0.5750063, 0.5750063, 0.25, 0.00, 0.00, 20, 20
ATT, 50122770, 0.00, -0.57, 0.00, 0.51, 0.55, 0.55, 0.00, 0.05
EKF1, 50122786, -0.57, 0.51, 0.55, 0.05913003, 0.004098729, -0.2031212, -1.093128, 0.7122093, -0.5750063, 0.00, 0.00, 0.00
EKF2, 50122793, 47, 19, -29, 0.00, 0.00, 239, -59, 410, 0, 0, 0
EKF3, 50122797, 0.01, 0.06, -0.12, 0.00, -0.01, -0.21, -4, 0, 0, 0.00
EKF4, 50122825, 0.02, 0.00, 0.02, 0.02, 0.00, 0.00, 0.00, 0, 0, 0, 18, 9023
AHR2, 50122834, -0.02, 0.70, 4.38, 19.03, 41.4895488, -71.4224271
POS, 50122859, 41.4895489, -71.4224273, 19.35, 0.5750063
RATE, 50122864, 163.4207, 163.4207, -410, -45.93509, -45.93509, 91, -63.65068, -63.65068, 13, 6.588173, 6.588173, 87
MOTB, 50122876, 1, 1, 0, 1
RCIN, 50122880, 1496, 1510, 1123, 1506, 1147, 2016, 992, 1504, 0, 0, 0, 0, 0, 0
RCOU, 50122952, 992, 992, 992, 992, 992, 992, 992, 992, 1520, 1500, 0, 0
VIBE, 50123007, 0.02802472, 0.03072112, 0.03933205, 0, 0, 0
IMU, 50124644, 0.01022993, 0.01780684, -0.006164314, 0.1673949, -0.1798229, -9.60176, 0, 0, 23.25485, 1, 1
IMU2, 50124644, 0.0302897, -0.02738511, -0.0103812, 0.2230703, -0.07227659, -10.22134, 0, 0, 28, 1, 1
EV, 50139030, 15
UBX3, 50139119, 0, 1.193, 2.503, 0.3
UBX3, 50139362, 0, 1.191, 2.502, 0.37
UBX3, 50139733, 0, 1.189, 2.499, 0.27
GPS, 50139762, 3, 411691800, 1884, 7, 1.41, 41.4895482, -71.4224267, 0.00, 23.05, 0.04, 40.47, -0.07, 1
IMU, 50144029, -0.001242801, -0.001991362, 4.726138E-05, 0.1494774, -0.1803328, -9.623202, 0, 0, 23.25485, 1, 1
IMU2, 50144029, -0.003826789, 0.0003125016, -0.0009184435, 0.2407631, -0.09187617, -10.15753, 0, 0, 28, 1, 1
UBX3, 50159261, 0, 1.185, 2.496, 0.31
UBX3, 50159468, 0, 1.182, 2.494, 0.34
GPS, 50159704, 3, 411692400, 1884, 7, 1.41, 41.4895477, -71.4224262, 0.00, 23.05, 0.04, 40.47, -0.06, 1
IMU, 50163954, -0.0005078499, -0.000339483, -0.007871954, 0.1885254, -0.08208312, -9.637816, 0, 0, 23.25485, 1, 1
IMU2, 50163954, -0.00221564, -0.0010404, -0.008499458, 0.2513672, -0.1085176, -10.24588, 0, 0, 27.875, 1, 1
IMU, 50183949, -0.003676616, 0.0003386172, -0.006441084, 0.1694789, -0.2655507, -9.622146, 0, 0, 23.25485, 1, 1
IMU2, 50183949, -0.007318787, 0.001112366, 0.0008109109, 0.1475327, -0.1931571, -10.2632, 0, 0, 27.875, 1, 1
IMU, 50203982, 0.00190135, -0.0009775928, 0.003667962, 0.0265324, -0.2508102, -9.626944, 0, 0, 23.29917, 1, 1
IMU2, 50203982, -0.001431898, 0.00518346, 0.007533614, -0.02555373, -0.3333736, -10.19255, 0, 0, 28, 1, 1
CURR, 50219059, 112, 1652, 90, 5165, 8.258891, 0
POWR, 50219063, 5.16, 5.07, 3
MAG, 50219127, 234, -59, 414, -64, -26, 69, 0, 0, 0, 1
MAG2, 50219131, 163, -44, 464, -25, 30, -503, 0, 0, 0, 1
DU32, 50219141, 7, 353784
BARO, 50223070, 0.1958822, 102544.5, 26.79, -0.1835603
CTUN, 50223080, 230, 0, 112.1726, 0.5818247, 0.5818247, 0.19, 0.00, 0.00, 20, 20
ATT, 50223169, 0.00, -0.57, 0.00, 0.53, 0.54, 0.54, 0.08, 0.05
EKF1, 50223215, -0.57, 0.53, 0.54, 0.06231172, -0.007263477, -0.2012106, -1.09496, 0.7159522, -0.5818247, 0.00, 0.00, 0.00
EKF2, 50223221, 46, 18, -29, 0.00, 0.00, 239, -59, 410, 0, 0, 0
EKF3, 50223226, 0.03, -0.02, -0.14, 0.13, -0.08, -0.31, 0, -1, 0, 0.00
EKF4, 50223249, 0.02, 0.03, 0.03, 0.00, 0.00, 0.00, 0.00, 0, 0, 0, 16, 9023
AHR2, 50223258, 0.08, 0.64, 4.36, 18.97, 41.4895477, -71.4224262
POS, 50223283, 41.4895489, -71.4224273, 19.36, 0.5818247
RATE, 50223288, 11.59696, 11.59696, -14, 18.08586, 18.08586, -52, -7.569222, -7.569222, 0, 21.0722, 21.0722, 112.1726
MOTB, 50223423, 1, 1, 0, 1
RCIN, 50223428, 1495, 1510, 1137, 1507, 1146, 2016, 993, 1504, 0, 0, 0, 0, 0, 0
RCOU, 50223494, 1106, 1106, 1106, 1106, 1106, 1106, 1106, 1106, 1520, 1500, 0, 0
VIBE, 50223509, 2.270595, 1.078643, 1.15514, 0, 0, 0
IMU, 50224850, 0.003387941, 0.006811416, 0.001214195, 0.1523419, -0.1001045, -9.679479, 0, 0, 23.21053, 1, 1
IMU2, 50224850, 0.0008061202, 0.003262019, 0.001441742, 0.2235425, -0.1907111, -10.23661, 0, 0, 28, 1, 1
IMU, 50244612, -0.002884719, -0.004277381, 0.005647422, 0.2951527, -0.255939, -9.562943, 0, 0, 23.21053, 1, 1
IMU2, 50244612, -0.005039942, 0.0002335834, 0.004364527, 0.5099674, -0.2375604, -10.07197, 0, 0, 28, 1, 1
IMU, 50264402, 0.001115671, -0.001348485, 0.01352475, 0.1732817, -0.2303426, -9.652729, 0, 0, 23.25485, 1, 1
IMU2, 50264402, -0.003859213, -0.002619199, 0.01349586, 0.2535673, -0.2177074, -10.16665, 0, 0, 27.75, 1, 1
UBX3, 50279365, 0, 1.17, 2.497, 0.34
GPS, 50279373, 3, 411692400, 1884, 7, 1.41, 41.489546, -71.4224239, 0.01, 23.24, 0.17, 40.47, -0.18, 1
IMU, 50284461, -0.001661817, 0.005151618, 0.002429912, 0.1679063, -0.1765016, -9.628231, 0, 0, 23.21053, 1, 1
IMU2, 50284461, -0.004356483, 0.002091312, 0.006892059, 0.1698882, -0.2778206, -10.07199, 0, 0, 27.75, 1, 1
IMU, 50304388, -0.008671979, 0.001796188, -0.01168048, 0.1144173, -0.2639742, -9.6421, 0, 0, 23.21053, 1, 1
IMU2, 50304388, -0.01191296, 0.005256549, -0.01237599, 0.1920476, -0.3030674, -10.14933, 0, 0, 27.875, 1, 1
CURR, 50319448, 116, 1629, 781, 5177, 8.476722, 0
POWR, 50319452, 5.17, 5.05, 3
MAG, 50319478, 238, -60, 417, -64, -26, 69, 0, 0, 0, 1
MAG2, 50319482, 135, -40, 459, -25, 30, -503, 0, 0, 0, 1
BARO, 50323624, 0.2372658, 102544, 26.78, -0.08853606
CTUN, 50323661, 240, 0, 116.9066, 0.5863622, 0.5863622, 0.23, 0.00, 0.00, 19, 19
ATT, 50325302, 0.00, -0.59, 0.00, 0.56, 0.54, 0.54, 0.09, 0.05
EKF1, 50325319, -0.59, 0.56, 0.54, 0.05738138, -0.0173224, -0.1985153, -1.105345, 0.7277727, -0.5865961, 0.00, 0.00, 0.00
EKF2, 50325325, 48, 18, -29, 0.00, 0.00, 239, -59, 410, 0, 0, 0
EKF3, 50325330, 0.18, -0.13, -0.01, 0.31, -0.27, -0.34, -3, 0, -3, 0.00
EKF4, 50325382, 0.04, 0.08, 0.03, 0.02, 0.00, 0.02, 0.00, 0, 0, 0, 16, 9023
AHR2, 50325391, 0.18, 0.61, 4.35, 19.01, 41.489546, -71.4224239
POS, 50325416, 41.4895488, -71.4224271, 19.36, 0.5865961
RATE, 50325421, -43.71231, -43.71231, 3, 70.23386, 70.23386, 25, -73.64062, -73.64062, 0, 7.151985, 7.151985, 116.9066
MOTB, 50325463, 1, 1, 0.03175786, 1
RCIN, 50325467, 1495, 1510, 1148, 1507, 1147, 2016, 992, 1504, 0, 0, 0, 0, 0, 0
RCOU, 50325534, 1109, 1109, 1109, 1109, 1109, 1109, 1109, 1109, 1520, 1500, 0, 0
VIBE, 50325549, 1.7469, 0.9117714, 1.028994, 0, 0, 0
IMU, 50325573, -0.007411747, 0.01441567, -0.01302497, 0.08046853, -0.1337142, -9.694444, 0, 0, 23.1662, 1, 1
IMU2, 50325573, -0.007846807, 0.01010055, -0.01268043, 0.1544468, -0.07870296, -10.17406, 0, 0, 27.875, 1, 1
RAD, 50334391, 0, 0, 100, 33, 0, 0, 0
RAD, 50339390, 0, 0, 100, 33, 0, 0, 0
IMU, 50344395, -0.01423114, 0.02305724, -0.01026989, 0.1243304, -0.1903211, -9.582504, 0, 0, 23.21053, 1, 1
IMU2, 50344395, -0.02281927, 0.02177781, -0.0105178, 0.1594721, -0.08846743, -10.09198, 0, 0, 28.125, 1, 1
IMU, 50364512, -0.02430519, 0.03770634, 0.00176313, 0.1224609, -0.2141257, -9.693962, 0, 0, 23.21053, 1, 1
IMU2, 50364512, -0.02265761, 0.0217727, 0.001996845, 0.1302227, -0.1487697, -10.13309, 0, 0, 27.875, 1, 1
IMU, 50384448, -0.01290794, 0.007068676, 0.008687763, 0.1863896, -0.1193386, -9.514802, 0, 0, 23.21053, 1, 1
IMU2, 50384448, -0.02555624, 0.0261326, 0.009567498, 0.1536222, -0.08681379, -10.12885, 0, 0, 27.875, 1, 1
IMU, 50404444, -0.01336976, 0.0175027, 0.00346432, 0.2396013, -0.1618023, -9.547557, 0, 0, 23.29917, 1, 1
IMU2, 50404444, -0.01789827, 0.02713429, 0.002043424, 0.2473338, -0.1681009, -10.05274, 0, 0, 27.875, 1, 1
CURR, 50419602, 119, 1638, 604, 5191, 8.644992, 0
POWR, 50419606, 5.19, 5.05, 3
MAG, 50419635, 235, -62, 415, -64, -26, 69, 0, 0, 0, 1
MAG2, 50419639, 137, -44, 465, -25, 30, -503, 0, 0, 0, 1
BARO, 50423673, 0.4000412, 102542.1, 26.77, -0.05178966
CTUN, 50423683, 249, 0, 119.2737, 0.5925777, 0.5925777, 0.40, 0.00, 0.00, 19, 19
ATT, 50425192, 0.00, -0.68, 0.00, 0.72, 0.54, 0.54, 0.09, 0.05
EKF1, 50425256, -0.68, 0.72, 0.54, 0.04840055, -0.01868857, -0.1877607, -1.125335, 0.7470336, -0.5929384, 0.00, 0.00, 0.00
EKF2, 50425262, 48, 18, -29, 0.00, 0.00, 239, -59, 410, 0, 0, 0
EKF3, 50425267, 0.18, -0.13, -0.01, 0.31, -0.27, -0.18, -2, 0, -1, 0.00
EKF4, 50425290, 0.04, 0.08, 0.01, 0.01, 0.00, 0.00, 0.00, 0, 0, 0, 16, 9023
AHR2, 50425342, 0.10, 0.81, 4.33, 19.18, 41.489546, -71.4224239
POS, 50425367, 41.4895486, -71.4224269, 19.37, 0.5929384
RATE, 50425372, -129.037, -129.037, -10, 192.5246, 192.5246, 29, -14.52644, -14.52644, 1, -8.80022, -8.80022, 119.2737
MOTB, 50425384, 1, 1, 0.02551013, 1
RCIN, 50425388, 1495, 1510, 1158, 1505, 1146, 2017, 992, 1504, 0, 0, 0, 0, 0, 0
RCOU, 50425455, 1114, 1114, 1114, 1114, 1114, 1114, 1114, 1114, 1520, 1500, 0, 0
VIBE, 50425470, 1.152528, 0.6102926, 1.985907, 0, 0, 0
IMU, 50425485, -0.02395749, 0.03485879, -0.003592204, 0.3298749, -0.1527845, -9.633202, 0, 0, 23.25485, 1, 1
IMU2, 50425485, -0.02108499, 0.03234499, -0.00147846, 0.3642853, -0.19836, -9.919446, 0, 0, 27.875, 1, 1
IMU, 50444452, -0.01394459, 0.03879851, -0.007441312, 0.2243148, -0.1155393, -9.713535, 0, 0, 23.21053, 1, 1
IMU2, 50444452, -0.02546288, 0.03163046, -0.008659906, 0.1763432, -0.1426218, -10.25426, 0, 0, 27.875, 1, 1
UBX3, 50459517, 0, 1.169, 2.501, 0.28
GPS, 50459526, 3, 411693800, 1884, 7, 1.41, 41.4895458, -71.4224237, 0.02, 23.26, 0.12, 40.47, -0.07, 1
IMU, 50464399, -0.006771088, 0.02115334, -0.003306424, 0.3251672, 0.123622, -9.676763, 0, 0, 23.1662, 1, 1
IMU2, 50464399, -0.01634816, 0.01791311, -0.008009286, 0.2756523, 0.07957873, -10.15536, 0, 0, 28, 1, 1
IMU, 50484567, -0.008491236, 0.006558142, -0.004278574, 0.3622159, 0.00682284, -9.703488, 0, 0, 23.1662, 1, 1
IMU2, 50484567, -0.009411551, 0.01230011, -0.005787152, 0.3518589, 0.07189602, -10.27283, 0, 0, 28, 1, 1
IMU, 50504474, -0.00447265, 0.004510369, 0.006353497, 0.4702578, 0.1078804, -9.619418, 0, 0, 23.1662, 1, 1
IMU2, 50504474, -0.01170036, 0.01188571, 0.008323604, 0.6355432, 0.2515348, -9.96628, 0, 0, 28, 1, 1
CURR, 50519472, 134, 1648, 492, 5178, 8.781623, 0
POWR, 50519476, 5.17, 5.05, 3
MAG, 50519505, 235, -60, 415, -64, -26, 69, 0, 0, 0, 1
MAG2, 50519509, 140, -41, 465, -25, 30, -503, 0, 0, 0, 1
BARO, 50523619, 0.3365864, 102542.8, 26.77, -0.02837441
CTUN, 50523629, 305, 0, 134.0017, 0.6030186, 0.6030186, 0.33, 0.00, 0.00, 18, 19
ATT, 50525234, 0.00, -0.73, 0.00, 0.79, 0.56, 0.56, 0.10, 0.05
EKF1, 50525250, -0.73, 0.79, 0.56, 0.04000245, -0.01547659, -0.1926525, -1.143156, 0.7624378, -0.6032207, 0.00, 0.00, 0.00
EKF2, 50525257, 46, 18, -30, 0.00, 0.00, 239, -59, 410, 0, 0, 0
EKF3, 50525261, 0.00, 0.07, -0.12, 0.34, -0.29, -0.26, -3, -1, 0, 0.00
EKF4, 50525285, 0.02, 0.08, 0.02, 0.02, 0.00, 0.00, 0.00, 0, 0, 0, 16, 9023
AHR2, 50525294, 0.00, 0.85, 4.33, 19.11, 41.4895458, -71.4224237
POS, 50525319, 41.4895485, -71.4224267, 19.38, 0.6032207
RATE, 50525324, -26.99339, -26.99339, -2, -0.5851104, -0.5851104, 132, 33.68526, 33.68526, 0, -1.442814, -1.442814, 134.0017
MOTB, 50525336, 1, 1, 0.008719326, 1
RCIN, 50525340, 1496, 1510, 1222, 1505, 1146, 2017, 992, 1504, 0, 0, 0, 0, 0, 0
RCOU, 50525451, 1137, 1137, 1137, 1137, 1137, 1137, 1137, 1137, 1520, 1500, 0, 0
VIBE, 50525467, 2.012007, 2.189399, 2.166506, 0, 0, 0
IMU, 50525481, -0.001166287, -0.007998716, 0.004920186, 0.4232882, -0.02229025, -9.580875, 0, 0, 23.29917, 1, 1
IMU2, 50525481, -0.008256185, 0.007794598, 0.006838248, 0.3507283, 0.04572787, -10.10707, 0, 0, 28, 1, 1
IMU, 50544489, -0.003632565, 0.006176822, 0.001200868, 0.4267739, 0.05820546, -9.516157, 0, 0, 23.25485, 1, 1
IMU2, 50544489, -0.009723905, 0.01009146, 0.002143336, 0.1925966, 0.004397541, -10.25933, 0, 0, 28, 1, 1
IMU, 50564492, 0.002894883, -0.005462551, -0.0124303, 0.3699682, -0.1845737, -9.65276, 0, 0, 23.1662, 1, 1
IMU2, 50564492, -0.006612666, 0.01638089, -0.01166142, 0.2840666, -0.1497872, -10.26046, 0, 0, 27.75, 1, 1
IMU, 50584440, -0.01322433, 0.01835743, -0.01177418, 0.124227, -0.1784601, -9.784021, 0, 0, 23.1662, 1, 1
IMU2, 50584440, -0.01857602, 0.0194834, -0.007570143, 0.1491436, -0.1715494, -10.28209, 0, 0, 27.75, 1, 1
IMU, 50604442, -0.0168485, 0.01906575, -0.008403641, 0.106929, -0.1484306, -9.706397, 0, 0, 23.1662, 1, 1
IMU2, 50604442, -0.01659542, 0.01680035, -0.00926405, 0.1197572, -0.1743593, -10.17077, 0, 0, 27.625, 1, 1
CURR, 50619711, 168, 1620, 848, 5188, 9.017804, 0
POWR, 50619715, 5.18, 5.06, 3
MAG, 50619744, 235, -57, 422, -64, -26, 69, 0, 0, 0, 1
MAG2, 50619748, 109, -49, 467, -25, 30, -503, 0, 0, 0, 1
BARO, 50623534, 0.2483014, 102543.9, 26.76, 0.4080307
CTUN, 50623544, 455, 0, 168.4548, 0.6094193, 0.6094193, 0.24, 0.00, 0.00, 18, 18
ATT, 50625126, 0.00, -0.80, 0.00, 0.90, 0.52, 0.52, 0.10, 0.05
EKF1, 50625142, -0.80, 0.90, 0.52, 0.02943517, -0.03019983, -0.1783612, -1.160276, 0.7751688, -0.6095025, 0.00, 0.00, 0.00
EKF2, 50625148, 46, 18, -30, 0.00, 0.00, 239, -59, 410, 0, 0, 0
EKF3, 50625153, 0.00, 0.07, -0.12, 0.34, -0.29, -0.35, -3, -4, -7, 0.00
EKF4, 50625176, 0.02, 0.08, 0.03, 0.02, 0.03, 0.05, 0.00, 0, 0, 0, 16, 9023
AHR2, 50625185, -0.13, 0.91, 4.29, 19.02, 41.4895458, -71.4224237
POS, 50625215, 41.4895483, -71.4224266, 19.38, 0.6095025
RATE, 50625220, -131.3209, -131.3209, -32, 167.3988, 167.3988, 14, -2.29101, -2.29101, -1, -10.6389, -10.6389, 173.4518
MOTB, 50625233, 1, 1, 0.0401994, 1
RCIN, 50625237, 1496, 1510, 1393, 1505, 1147, 2016, 992, 1504, 0, 0, 0, 0, 0, 0
RCOU, 50625304, 1214, 1214, 1214, 1214, 1214, 1214, 1214, 1214, 1520, 1500, 0, 0
VIBE, 50625319, 2.964164, 1.717596, 3.598942, 0, 0, 0
IMU, 50625333, -0.01801868, 0.02832076, -0.001934708, 0.1739731, -0.1754696, -9.601276, 0, 0, 23.25485, 1, 1
IMU2, 50625333, -0.02782121, 0.03011256, 0.001135185, 0.1966954, -0.1929227, -9.928161, 0, 0, 27.875, 1, 1
IMU, 50644477, -0.01920657, 0.03090977, 0.004007479, 0.1842963, -0.1840418, -9.723293, 0, 0, 23.25485, 1, 1
IMU2, 50644477, -0.03046321, 0.02815444, 0.006592284, 0.1555556, -0.1482965, -10.22724, 0, 0, 27.75, 1, 1
UBX3, 50659572, 0, 1.168, 2.502, 0.39
GPS, 50659580, 3, 411694000, 1884, 7, 1.41, 41.4895456, -71.4224236, 0.04, 23.25, 0.04, 40.47, -0.18, 1
IMU, 50664587, -0.03116318, 0.03225014, -0.0004727546, 0.2613751, -0.163703, -9.524354, 0, 0, 23.25485, 1, 1
IMU2, 50664587, -0.03212582, 0.0337721, 0.002115811, 0.2183193, -0.04026115, -10.09817, 0, 0, 27.875, 1, 1
IMU, 50684521, -0.01892162, 0.0436974, -0.005762261, 0.3831204, -0.03168479, -9.509274, 0, 0, 23.1662, 1, 1
IMU2, 50684521, -0.02937016, 0.0408644, -0.007319323, 0.3865122, 0.01774275, -10.02929, 0, 0, 27.875, 1, 1
IMU, 50704693, -0.01956983, 0.03625859, -0.01500033, 0.1143779, -0.2037474, -9.494216, 0, 0, 23.1662, 1, 1
IMU2, 50704693, -0.03503945, 0.03705331, -0.008252124, 0.1494303, -0.1598015, -10.03462, 0, 0, 27.75, 1, 1
EV, 50711915, 28
CURR, 50719567, 224, 1607, 1564, 5178, 9.451778, 0
POWR, 50719571, 5.17, 5.06, 3
MAG, 50719600, 234, -58, 419, -64, -26, 69, 0, 0, 0, 1
MAG2, 50719604, 35, -56, 477, -25, 30, -503, 0, 0, 0, 1
BARO, 50723552, 0.2979617, 102543.3, 26.75, 0.2327625
CTUN, 50723662, 691, 0, 223.4798, 0.6117018, 0.6120294, 0.29, 0.00, 0.00, 0, 19
ATT, 50725305, 0.00, -0.95, 0.00, 1.12, 0.50, 0.50, 0.09, 0.05
EKF1, 50725321, -0.95, 1.12, 0.50, 0.02277505, -0.04090222, -0.1695434, -1.179228, 0.7897623, -0.6122045, 0.00, 0.00, 0.00
EKF2, 50725328, 48, 18, -30, 0.00, 0.00, 239, -59, 410, 0, 0, 0
EKF3, 50725332, 0.01, -0.05, -0.01, 0.32, -0.26, -0.31, -3, -4, -4, 0.00
EKF4, 50725356, 0.01, 0.08, 0.03, 0.02, 0.02, 0.02, 0.00, 0, 0, 0, 16, 9023
AHR2, 50725365, -0.31, 1.10, 4.26, 19.07, 41.4895456, -71.4224236
POS, 50725390, 41.4895482, -71.4224264, 19.39, 0.6122045
RATE, 50725395, 727.3234, -199.5266, 941, -743.9668, 220.1074, -1013, -4.670633, -37.11324, 5, -26.38697, 31.29768, 222.2692
MOTB, 50725407, 1, 1, 0.03002149, 1
RCIN, 50725411, 1496, 1510, 1663, 1515, 1146, 2016, 992, 1504, 0, 0, 0, 0, 0, 0
RCOU, 50725478, 1310, 1310, 1310, 1310, 1310, 1310, 1310, 1310, 1520, 1500, 0, 0
VIBE, 50725493, 2.767679, 1.702713, 4.073714, 0, 0, 0
IMU, 50725508, -0.02884377, 0.03122264, -0.006600635, 0.2803863, -0.1809038, -9.863369, 0, 0, 23.25485, 1, 1
IMU2, 50725508, -0.04080479, 0.04560941, -0.006354016, 0.2150157, -0.08832591, -10.49021, 0, 0, 27.875, 1, 1
IMU, 50744764, -0.006367935, -0.001143444, -0.01373043, 0.361489, -0.01015532, -9.968864, 0, 0, 23.1662, 1, 1
IMU2, 50744764, -0.02011619, 0.02308538, -0.008253426, 0.2702976, 0.017673, -10.63714, 0, 0, 27.875, 1, 1
IMU, 50764583, 0.04654248, -0.05665673, 0.009932221, 0.5956702, 0.2299389, -9.241292, 0, 0, 23.29917, 1, 1
IMU2, 50764583, 0.04107269, -0.05377441, 0.01280543, 0.7717638, 0.09602417, -9.932926, 0, 0, 27.875, 1, 1
IMU, 50784633, -0.007123525, 0.02498496, 0.020124, 0.9130436, -0.4338961, -10.14987, 0, 0, 23.21053, 1, 1
IMU2, 50784633, -0.003129235, 0.01051463, 0.02703656, 0.7025597, -0.4198311, -10.60727, 0, 0, 27.875, 1, 1
IMU, 50805151, 0.02022381, -0.006446046, -0.005296902, 0.2570486, -0.6119789, -9.556199, 0, 0, 23.1662, 1, 1
IMU2, 50805151, 0.01432868, -0.007491347, 0.008483512, 0.1394939, -0.6451077, -10.14478, 0, 0, 27.875, 1, 1
CURR, 50819765, 195, 1584, 2700, 5180, 10.20347, 0
POWR, 50819769, 5.18, 5.06, 3
MAG, 50819798, 236, -54, 429, -64, -26, 69, 0, 0, 0, 1
MAG2, 50819802, 3, -70, 486, -25, 30, -503, 0, 0, 0, 1
BARO, 50823661, 0.5821289, 102540, 26.75, -0.04052142
CTUN, 50823671, 827, 0, 195.4291, 0.6123337, 0.6162938, 0.58, 0.00, 0.00, 1, 18
ATT, 50826141, 0.00, -0.78, 0.00, 0.96, 0.50, 0.50, 0.09, 0.06
EKF1, 50826158, -0.78, 0.96, 0.50, 0.02263994, -0.02181816, -0.1650405, -1.198012, 0.8064147, -0.6167212, 0.00, 0.00, 0.00
EKF2, 50826200, 48, 18, -30, 0.00, 0.00, 239, -59, 410, 0, 0, 0
EKF3, 50826204, 0.01, -0.05, -0.01, 0.32, -0.26, -0.03, -6, -8, -14, 0.00
EKF4, 50826228, 0.01, 0.08, 0.00, 0.04, 0.05, 0.09, 0.00, 0, 0, 0, 16, 9023
AHR2, 50826237, -0.12, 0.93, 4.24, 19.36, 41.4895456, -71.4224236
POS, 50826262, 41.489548, -71.4224262, 19.39, 0.6167212
RATE, 50826267, 598.0596, 437.713, -240, -637.0363, -664.6176, 572, -3.282022, -88.59341, 12, -59.67163, -57.25632, 194.9274
MOTB, 50826280, 1, 1, 0.02557098, 1
RCIN, 50826284, 1496, 1510, 1818, 1542, 1146, 2017, 992, 1504, 0, 0, 0, 0, 0, 0
RCOU, 50826356, 1333, 1286, 1170, 1235, 1286, 1333, 1235, 1170, 1520, 1500, 0, 0
VIBE, 50826371, 5.785738, 2.563646, 6.714163, 0, 0, 0
IMU, 50826386, 0.08228333, -0.1239509, -0.01729649, 0.1970865, 0.1828824, -9.12526, 0, 0, 23.21053, 1, 1
IMU2, 50826386, 0.0705061, -0.1080444, -0.01362781, -0.06769718, 0.1906098, -9.462626, 0, 0, 27.875, 1, 1
IMU, 50845334, 0.06032955, -0.07551982, -0.01367803, 0.3660838, 0.2838633, -9.748608, 0, 0, 23.21053, 1, 1
IMU2, 50845334, 0.05616821, -0.07326315, -0.01204246, 0.3006583, 0.3379572, -10.44684, 0, 0, 27.875, 1, 1
IMU, 50865040, 0.01715482, -0.02857297, -0.006382013, 0.277217, -0.5334288, -9.105448, 0, 0, 23.12188, 1, 1
IMU2, 50865040, 0.01182969, 0.01029008, -0.005974394, 0.2664753, -0.5656341, -9.781585, 0, 0, 27.875, 1, 1
UBX3, 50879936, 0, 1.167, 2.502, 0.37
GPS, 50879944, 3, 411694200, 1884, 7, 1.41, 41.4895455, -71.4224234, 0.05, 23.27, 0.03, 40.47, -0.13, 1
IMU, 50885141, 0.03859442, -0.07180516, 0.01335388, 0.1346204, -0.3305143, -9.651337, 0, 0, 23.21053, 1, 1
IMU2, 50885141, 0.04022511, -0.06365684, 0.004837691, 0.1640393, -0.2791088, -10.0987, 0, 0, 27.875, 1, 1
IMU, 50905118, 0.07172555, -0.1023794, 0.02638345, -0.2571394, 0.1874575, -10.06773, 0, 0, 23.21053, 1, 1
IMU2, 50905118, 0.0586755, -0.1144816, 0.0262086, -0.6682234, 0.07468347, -11.10314, 0, 0, 27.75, 1, 1
CURR, 50920090, 162, 1613, 1406, 5180, 10.59552, 0
POWR, 50920094, 5.18, 5.06, 3
MAG, 50920174, 235, -56, 418, -64, -26, 69, 0, 0, 0, 1
MAG2, 50920178, 79, -47, 467, -25, 30, -503, 0, 0, 0, 1
BARO, 50924048, 0.7173153, 102538.4, 26.75, 0.3170245
CTUN, 50924058, 923, 0, 162.0758, 0.6158651, 0.6319879, 0.71, 0.00, 0.00, 4, 17
ATT, 50926196, 0.00, -0.51, 0.00, 0.73, 0.93, 0.55, 0.08, 0.06
EKF1, 50926212, -0.51, 0.73, 0.55, 0.0160063, -0.02841501, -0.1570942, -1.21239, 0.8192073, -0.6326594, 0.00, 0.00, 0.00
EKF2, 50926219, 47, 18, -30, 0.00, 0.00, 239, -59, 410, 0, 0, 0
EKF3, 50926223, 0.00, -0.02, -0.05, 0.30, -0.25, 0.09, -3, -4, -3, 0.00
EKF4, 50926247, 0.01, 0.07, 0.00, 0.02, 0.03, 0.02, 0.00, 0, 0, 0, 16, 9023
AHR2, 50926256, 0.14, 0.70, 4.29, 19.49, 41.4895455, -71.4224234
POS, 50926282, 41.4895479, -71.422426, 19.41, 0.6326594
RATE, 50926321, 371.685, 81.43958, 514, -497.8606, -82.00048, -720, 1027.28, 222.6544, 127, -24.62987, 90.69424, 160.8263
MOTB, 50926334, 1, 1, 0.02891699, 1
RCIN, 50926337, 1495, 1510, 1928, 1575, 1146, 2017, 992, 1504, 0, 0, 0, 0, 0, 0
RCOU, 50926404, 1340, 1231, 1194, 1212, 1282, 1297, 1266, 1124, 1520, 1500, 0, 0
VIBE, 50926419, 7.865973, 3.360614, 12.50557, 0, 0, 0
IMU, 50926434, 0.0206758, -0.01358611, 0.03185342, -0.53236, -0.3559311, -10.74297, 0, 0, 23.29917, 1, 1
IMU2, 50926434, 0.007750224, -0.01503744, 0.0458684, -0.5730894, -0.4858976, -10.8417, 0, 0, 27.875, 1, 1
IMU, 50945632, -0.006460545, 0.03179749, -0.00192938, -0.3563501, -1.016877, -9.578421, 0, 0, 23.21053, 1, 1
IMU2, 50945632, -0.02119076, 0.03837432, 0.02032025, -0.08959366, -0.7370926, -9.769695, 0, 0, 27.875, 1, 1
IMU, 50965500, 0.06577633, -0.08705015, -0.01994177, -0.1670853, -0.2894259, -8.959526, 0, 0, 23.21053, 1, 1
IMU2, 50965500, 0.03448923, -0.05386371, -0.00724268, 0.6309983, 0.1139753, -9.317126, 0, 0, 27.75, 1, 1
IMU, 50985581, 0.04923423, -0.09427492, -0.01564318, 0.4187042, 0.4301718, -9.749936, 0, 0, 23.21053, 1, 1
IMU2, 50985581, 0.05762678, -0.06305397, -0.01477557, 0.9542489, 0.6401739, -10.0727, 0, 0, 27.875, 1, 1
IMU, 51005576, -0.03414028, 0.08046076, 0.01097618, 0.5178301, -0.2818723, -9.95274, 0, 0, 23.21053, 1, 1
IMU2, 51005576, -0.02173554, 0.07285725, 0.00383497, 0.4742697, -0.3090869, -10.07781, 0, 0, 27.875, 1, 1
CURR, 51020707, 151, 1603, 1555, 5141, 11.03018, 0
POWR, 51020711, 5.14, 5.11, 3
MAG, 51020740, 236, -54, 420, -64, -26, 69, 0, 0, 0, 1
MAG2, 51020744, 51, -41, 466, -25, 30, -503, 0, 0, 0, 1
BARO, 51024600, 0.7393865, 102538.1, 26.75, 1.102199
CTUN, 51024609, 999, 0, 151.9726, 0.6248419, 0.653297, 0.73, 0.00, 0.00, 9, 17
ATT, 51026466, 0.00, -0.46, 0.00, 0.62, 1.79, 0.57, 0.08, 0.06
EKF1, 51026483, -0.46, 0.62, 0.57, 0.00567169, -0.04821319, -0.168681, -1.231122, 0.8337212, -0.6538789, 0.00, 0.00, 0.00
EKF2, 51026489, 47, 18, -30, 0.00, 0.00, 239, -59, 410, 0, 0, 0
EKF3, 51026493, 0.00, -0.02, -0.05, 0.30, -0.25, 0.09, -2, -5, -6, 0.00
EKF4, 51026570, 0.01, 0.07, 0.00, 0.01, 0.03, 0.04, 0.00, 0, 0, 0, 16, 9023
AHR2, 51026580, 0.17, 0.58, 4.30, 19.51, 41.4895455, -71.4224234
POS, 51026639, 41.4895477, -71.4224259, 19.43, 0.6538789
RATE, 51026644, 325.5876, -101.212, 42, -430.7978, 107.9936, 181, 1742.134, 48.57498, 264, 27.72771, -11.54709, 152.0736
MOTB, 51026657, 1, 1, 0.03231188, 1
RCIN, 51026661, 1495, 1510, 2014, 1609, 1146, 2016, 993, 1504, 0, 0, 0, 0, 0, 0
RCOU, 51026727, 1218, 1279, 1469, 1322, 1342, 1124, 1379, 1422, 1520, 1500, 0, 0
VIBE, 51026742, 8.421947, 4.337514, 10.7299, 0, 0, 0
IMU, 51026757, -0.007057639, 0.009421191, 0.009428667, 0.2365599, -0.6452816, -9.52876, 0, 0, 23.12188, 1, 1
IMU2, 51026757, -0.0282742, 0.02827559, 0.007528236, 0.1638248, -0.6880554, -9.979162, 0, 0, 27.875, 1, 1
IMU, 51045926, 0.06497074, -0.1308581, -0.0006549155, -0.2004659, 0.283165, -8.754287, 0, 0, 23.12188, 1, 1
IMU2, 51045926, 0.03936628, -0.09367114, 0.007297489, -0.04516901, 0.2837935, -9.807199, 0, 0, 27.875, 1, 1
UBX3, 51061125, 0, 1.166, 2.504, 0.39
GPS, 51061133, 3, 411694400, 1884, 7, 1.41, 41.4895453, -71.4224231, 0.09, 23.33, 0.02, 40.47, -0.12, 1
IMU, 51066076, 0.02243647, -0.01050067, 0.0296785, 0.2767642, 0.3338317, -10.24595, 0, 0, 23.21053, 1, 1
IMU2, 51066076, 0.009323379, -0.0297251, 0.03093193, -0.01341437, 0.1643607, -11.09187, 0, 0, 27.875, 1, 1
IMU, 51085903, -0.03720599, 0.06297677, 0.04044038, 0.1417615, -0.5848803, -9.676114, 0, 0, 23.12188, 1, 1
IMU2, 51085903, -0.04558485, 0.07378739, 0.04019418, -0.2037416, -0.7709051, -10.53694, 0, 0, 27.75, 1, 1
IMU, 51106120, 0.008358805, -0.03511608, 0.02836492, -0.1545449, -0.4717643, -9.672148, 0, 0, 23.21053, 1, 1
IMU2, 51106120, 0.01658958, -0.01661332, 0.03207581, -0.02023978, -0.4669943, -10.32899, 0, 0, 27.875, 1, 1
CURR, 51120778, 151, 1590, 2274, 5146, 11.66246, 0
POWR, 51120782, 5.14, 5.06, 3
MAG, 51120808, 237, -54, 420, -64, -26, 69, 0, 0, 0, 1
MAG2, 51120812, 3, -53, 484, -25, 30, -503, 0, 0, 0, 1
BARO, 51125005, 0.8635372, 102536.7, 26.75, 1.428704
CTUN, 51125014, 999, 0, 151.8903, 0.6417842, 0.6757669, 0.86, 0.00, 0.00, 18, 19
ATT, 51127138, 0.00, -0.32, 0.00, 0.39, 3.64, 0.68, 0.07, 0.06
EKF1, 51127188, -0.32, 0.39, 0.68, 0.001998645, -0.04431051, -0.18364, -1.25095, 0.8476958, -0.6764721, 0.00, 0.00, 0.00
EKF2, 51127194, 47, 18, -30, 0.00, 0.00, 239, -59, 410, 0, 0, 0
EKF3, 51127199, 0.02, -0.03, -0.03, 0.29, -0.24, 0.20, -3, -5, -6, 0.00
EKF4, 51127222, 0.00, 0.07, 0.01, 0.02, 0.03, 0.03, 0.00, 0, 0, 0, 16, 9023
AHR2, 51127231, 0.29, 0.35, 4.40, 19.64, 41.4895453, -71.4224231
POS, 51127399, 41.4895475, -71.4224257, 19.45, 0.6764721
RATE, 51127404, 213.1112, 317.6566, -107, -283.3265, -808.5256, 664, 2976.882, 105.0245, 462, 84.69275, -8.698654, 152.3307
MOTB, 51127417, 1, 1, 0.02772248, 1
RCIN, 51127424, 1496, 1510, 2014, 1621, 1146, 2016, 992, 1504, 0, 0, 0, 0, 0, 0
RCOU, 51127490, 1393, 1231, 1300, 1170, 1369, 1264, 1328, 1124, 1520, 1500, 0, 0
VIBE, 51127505, 7.02536, 4.462299, 9.923476, 0, 0, 0
IMU, 51127740, 0.06086005, -0.1506342, 0.0130813, 0.02213077, 0.09517889, -9.485373, 0, 0, 23.12188, 1, 1
IMU2, 51127740, 0.05001997, -0.1315949, 0.02358044, -0.04311707, -0.08557334, -10.06472, 0, 0, 27.625, 1, 1
UBX1, 51141428, 0, 120, 6, 1, 1679
IMU, 51146703, -0.006133969, 0.03927943, -0.005703286, 0.5648215, -0.08925352, -10.47397, 0, 0, 23.12188, 1, 1
IMU2, 51146703, -0.006126675, 0.0448987, 0.004233579, 0.4892434, -0.07317697, -10.85129, 0, 0, 27.75, 1, 1
UBX2, 51161557, 0, 12, 116, 18, 195
IMU, 51166475, -0.06479665, 0.1236477, -0.01635685, 0.2487874, -0.5431536, -9.675951, 0, 0, 23.12188, 1, 1
IMU2, 51166475, -0.07596679, 0.1359377, -0.01665635, 0.1894591, -0.5626209, -10.35218, 0, 0, 27.75, 1, 1
IMU, 51186492, 0.01110072, -0.03964452, -0.01438523, -0.3799814, -0.2943825, -9.509121, 0, 0, 23.21053, 1, 1
IMU2, 51186492, -0.00729403, -0.03370665, -0.01738208, -0.791135, -0.3609706, -9.873403, 0, 0, 27.875, 1, 1
IMU, 51206565, 0.08919998, -0.1237565, 0.02107461, -0.08329163, -0.07885033, -10.44417, 0, 0, 23.21053, 1, 1
IMU2, 51206565, 0.08966367, -0.1641888, 0.02115042, -0.2556157, -0.2743747, -10.66311, 0, 0, 27.75, 1, 1
CURR, 51221827, 156, 1560, 3049, 5172, 12.51852, 0
POWR, 51221831, 5.17, 5.08, 3
MAG, 51221860, 237, -53, 424, -64, -26, 69, 0, 0, 0, 1
MAG2, 51221864, -32, -69, 495, -25, 30, -503, 0, 0, 0, 1
DU32, 51221874, 7, 337272
PM, 51221971, 29, 4000, 3530, 0, 0, 0
BARO, 51226957, 0.5186741, 102540.7, 26.74, 1.03377
CTUN, 51226967, 999, 0, 154.25, 0.6692647, 0.7055172, 0.51, 0.00, 0.00, 29, 23
ATT, 51228673, 0.00, -0.27, 0.00, 0.53, 5.64, 0.70, 0.07, 0.06
EKF1, 51228689, -0.27, 0.53, 0.70, -0.03716085, -0.04151711, -0.2267623, -1.272774, 0.8610156, -0.7063329, 0.00, 0.00, 0.00
EKF2, 51228696, 47, 18, -30, 0.00, 0.00, 239, -59, 410, 0, 0, 0
EKF3, 51228700, 0.02, -0.03, -0.03, 0.29, -0.24, -0.16, -3, -6, -9, 0.00
EKF4, 51228724, 0.00, 0.07, 0.01, 0.02, 0.04, 0.05, 0.00, 0, 0, 0, 16, 9023
AHR2, 51228733, 0.33, 0.49, 4.41, 19.29, 41.4895453, -71.4224231
POS, 51228758, 41.4895473, -71.4224255, 19.48, 0.7063329
RATE, 51228763, 150.1413, 65.67263, 460, -378.9974, 507.7143, -2043, 3414.713, 105.5502, 538, 262.9647, 196.936, 152.9243
MOTB, 51228775, 1, 1, 0.03067962, 1
RCIN, 51228779, 1495, 1510, 2014, 1619, 1146, 2016, 992, 1504, 0, 0, 0, 0, 0, 0
RCOU, 51228854, 1323, 1124, 1429, 1294, 1321, 1129, 1431, 1290, 1520, 1500, 0, 0
VIBE, 51228869, 10.51671, 3.474938, 15.94877, 0, 0, 0
IMU, 51228968, 0.01318378, 0.1090166, 0.01513055, -0.1124807, -0.1619385, -11.32482, 0, 0, 23.03324, 1, 1
IMU2, 51228968, 0.009736688, 0.06820855, 0.02171503, -0.04045969, -0.0400924, -12.32437, 0, 0, 27.75, 1, 1
IMU, 51248348, -0.05474046, 0.2254649, 0.04479421, -0.02687788, -0.1738746, -10.29562, 0, 0, 23.21053, 1, 1
IMU2, 51248348, -0.06449987, 0.2322197, 0.03379466, -0.1381306, -0.1716689, -10.82679, 0, 0, 27.875, 1, 1
UBX3, 51263562, 0, 1.164, 2.506, 0.38
GPS, 51263570, 3, 411694600, 1884, 7, 1.41, 41.4895452, -71.4224227, 0.14, 23.38, 0.02, 40.47, -0.11, 1
IMU, 51268217, -0.09266829, 0.1186757, 0.0481917, -0.1886186, -0.4449948, -11.15902, 0, 0, 23.12188, 1, 1
IMU2, 51268217, -0.09645393, 0.1557671, 0.05766575, -0.1891325, -0.400566, -11.71522, 0, 0, 27.875, 1, 1
IMU, 51288186, -0.04954324, -0.07123766, 0.1053283, 0.230056, 0.1659598, -10.0506, 0, 0, 23.21053, 1, 1
IMU2, 51288186, -0.06977773, -0.04197488, 0.1061728, 0.2816179, 0.1513301, -10.4651, 0, 0, 27.875, 1, 1
IMU, 51308338, 0.006002345, -0.1424402, 0.1585414, -0.09407718, -0.3021762, -9.95924, 0, 0, 23.21053, 1, 1
IMU2, 51308338, -0.02245674, -0.1485756, 0.1681556, 0.01484633, -0.1267221, -11.21655, 0, 0, 27.75, 1, 1
CURR, 51323178, 160, 1587, 2833, 5180, 13.31635, 0
POWR, 51323182, 5.18, 5.06, 3
MAG, 51323211, 240, -55, 423, -64, -26, 69, 0, 0, 0, 1
MAG2, 51323215, -35, -16, 476, -25, 30, -503, 0, 0, 0, 1
BARO, 51327380, 0.8138769, 102537.3, 26.74, 0.3098995
CTUN, 51327389, 1000, 0, 161.9447, 0.7103572, 0.7251934, 0.81, 0.00, 0.00, 46, 32
ATT, 51329222, 0.00, -0.45, 0.00, 0.63, 7.60, 1.37, 0.06, 0.07
EKF1, 51329239, -0.45, 0.63, 1.37, -0.07609586, -0.03580575, -0.3039486, -1.296245, 0.8747473, -0.7262281, 0.00, 0.00, 0.00
EKF2, 51329245, 47, 18, -30, 0.00, 0.00, 239, -59, 410, 0, 0, 0
EKF3, 51329249, 0.00, -0.04, -0.07, 0.26, -0.25, 0.10, -9, -5, -7, 0.00
EKF4, 51329273, 0.01, 0.07, 0.00, 0.06, 0.03, 0.05, 0.00, 0, 0, 0, 16, 9023
AHR2, 51329282, 0.14, 0.57, 5.08, 19.59, 41.4895452, -71.4224227
POS, 51329344, 41.4895471, -71.4224254, 19.5, 0.7262281
RATE, 51329349, 258.3421, 96.99741, -3, -473.4704, -317.2737, -621, 3382.049, 1135.675, 383, 252.9227, 65.40661, 162.7617
MOTB, 51329415, 1, 1, 0.02353196, 1
RCIN, 51329419, 1495, 1510, 2015, 1604, 1146, 2016, 993, 1503, 0, 0, 0, 0, 0, 0
RCOU, 51329549, 1434, 1315, 1300, 1129, 1431, 1318, 1303, 1124, 1520, 1500, 0, 0
VIBE, 51329565, 7.969852, 3.808773, 18.00808, 0, 0, 0
IMU, 51329579, 0.02465448, -0.0383124, 0.1880664, -0.1874869, 0.1007183, -10.56246, 0, 0, 23.12188, 1, 1
IMU2, 51329579, 0.009199081, -0.07243729, 0.2083608, -0.1958642, 0.3869019, -10.49889, 0, 0, 27.75, 1, 1
IMU, 51348564, 0.04618952, 0.003139828, 0.2514464, -0.305841, -0.1307858, -9.799853, 0, 0, 23.12188, 1, 1
IMU2, 51348564, 0.0183928, -0.001544505, 0.2658588, -0.359198, -0.3149444, -10.1823, 0, 0, 27.75, 1, 1
IMU, 51368531, 0.01462504, 0.04042291, 0.2673201, -0.5956566, -0.5328395, -9.421227, 0, 0, 23.1662, 1, 1
IMU2, 51368531, -0.002136122, 0.03726084, 0.2974109, -0.4602706, -0.4281967, -9.522701, 0, 0, 27.75, 1, 1
IMU, 51388503, 0.0263446, 0.09860477, 0.2945702, 0.09748492, 0.2398202, -8.783306, 0, 0, 23.07756, 1, 1
IMU2, 51388503, 0.0184716, 0.0903626, 0.3195227, 0.2545164, 0.1685835, -9.390016, 0, 0, 27.75, 1, 1
IMU, 51408732, 0.04196518, 0.1151552, 0.3031206, 0.1378615, -0.321649, -8.178922, 0, 0, 23.25485, 1, 1
IMU2, 51408732, 0.04195435, 0.1130627, 0.3296086, -0.1144091, -0.3448901, -9.145227, 0, 0, 27.75, 1, 1
CURR, 51423635, 253, 1618, 1478, 5185, 13.72887, 0
POWR, 51423639, 5.18, 5.05, 3
MAG, 51423705, 239, -57, 420, -64, -26, 69, 0, 0, 0, 1
MAG2, 51423709, 90, -62, 484, -25, 30, -503, 0, 0, 0, 1
BARO, 51427731, 0.6924851, 102538.7, 26.73, -0.1873871
CTUN, 51427740, 999, 0, 258.2893, 0.7665732, 0.7584746, 0.69, 0.00, 0.00, 65, 28
ATT, 51429358, 0.00, -0.24, 0.00, 0.90, 8.77, 3.08, 0.06, 0.07
EKF1, 51429374, -0.24, 0.90, 3.08, -0.09155297, -0.04211053, -0.213121, -1.32201, 0.8891668, -0.7590805, 0.00, 0.00, 0.00
EKF2, 51429380, 47, 18, -30, 0.00, 0.00, 239, -59, 410, 0, 0, 0
EKF3, 51429385, 0.00, -0.04, -0.07, 0.26, -0.25, -0.04, -7, -8, -6, 0.00
EKF4, 51429445, 0.01, 0.07, 0.00, 0.04, 0.05, 0.03, 0.00, 0, 0, 0, 16, 9023
AHR2, 51429454, 0.33, 0.80, 6.80, 19.47, 41.4895452, -71.4224227
POS, 51429479, 41.4895469, -71.4224252, 19.53, 0.7590805
RATE, 51429519, 59.19699, 182.3134, 151, -625.925, 192.9625, 41, 3085.171, 1833.18, 212, 412.6741, -161.7744, 261.359
MOTB, 51429532, 1, 1, 0.02409994, 1
RCIN, 51429536, 1496, 1510, 2014, 1604, 1146, 2016, 993, 1503, 0, 0, 0, 0, 0, 0
RCOU, 51429609, 1357, 1281, 1375, 1349, 1335, 1306, 1395, 1326, 1520, 1500, 0, 0
VIBE, 51429624, 8.735068, 3.339912, 15.4783, 0, 0, 0
IMU, 51429639, 0.0354245, 0.02456637, 0.3034983, -0.5272407, -0.2530568, -8.429335, 0, 0, 23.12188, 1, 1
IMU2, 51429639, 0.02820917, 0.04279028, 0.3364046, -0.2225639, -0.1015547, -8.113176, 0, 0, 27.75, 1, 1
IMU, 51448878, 0.03164474, -0.04667965, 0.3362477, 0.02335343, -0.1418433, -8.770608, 0, 0, 23.12188, 1, 1
IMU2, 51448878, 0.01703817, -0.04252567, 0.3627947, 0.4166658, -0.1888521, -9.78202, 0, 0, 27.75, 1, 1
IMU, 51468814, -0.001763293, -0.01206799, 0.3545326, 0.02811163, -0.2274679, -9.062891, 0, 0, 23.12188, 1, 1
IMU2, 51468814, -0.001989806, -0.00107769, 0.3917633, 0.01773581, -0.266187, -9.843121, 0, 0, 27.75, 1, 1
UBX3, 51483843, 0, 1.163, 2.509, 0.38
GPS, 51483851, 3, 411694800, 1884, 7, 1.41, 41.489545, -71.4224223, 0.20, 23.48, 0.04, 40.47, -0.2, 1
IMU, 51489557, 0.01733373, 0.06565353, 0.3804244, -0.2504979, -0.2623811, -10.26948, 0, 0, 23.12188, 1, 1
IMU2, 51489557, 0.01199364, 0.07107394, 0.4166429, -0.3668221, -0.2751513, -11.05097, 0, 0, 27.75, 1, 1
IMU, 51509131, 0.05762005, 0.1143185, 0.4042954, -0.1162718, 0.005646583, -10.7383, 0, 0, 23.12188, 1, 1
IMU2, 51509131, 0.05005701, 0.113303, 0.4311191, -0.1085779, 0.1560456, -10.85248, 0, 0, 27.75, 1, 1
CURR, 51523900, 343, 1557, 3182, 5161, 14.61532, 0
POWR, 51523904, 5.16, 5.07, 3
MAG, 51523931, 233, -61, 425, -64, -26, 69, 0, 0, 0, 1
MAG2, 51523935, -48, -81, 475, -25, 30, -503, 0, 0, 0, 1
BARO, 51529415, 0.3972823, 102542.1, 26.71, -0.2338215
CTUN, 51529425, 999, 0, 343.3778, 0.8410508, 0.7797902, 0.39, 0.00, 0.00, 89, 26
ATT, 51531777, 0.00, -0.05, 0.00, 1.07, 10.59, 5.47, 0.05, 0.08
EKF1, 51531798, -0.05, 1.07, 5.47, -0.1253681, -0.06375456, -0.277691, -1.347025, 0.9005257, -0.7805583, 0.00, 0.00, 0.00
EKF2, 51531805, 48, 18, -30, 0.00, 0.00, 239, -59, 410, 0, 0, 0
EKF3, 51531809, 0.00, -0.05, -0.05, 0.24, -0.26, -0.36, -5, -11, -10, 0.00
EKF4, 51531833, 0.01, 0.07, 0.03, 0.03, 0.06, 0.05, 0.00, 0, 0, 0, 16, 9023
AHR2, 51531842, 0.47, 0.93, 9.18, 19.17, 41.489545, -71.4224223
POS, 51531867, 41.4895466, -71.4224251, 19.56, 0.7805583
RATE, 51531872, -127.6545, -4.900623, 356, -715.2401, 165.1281, 77, 3600.584, 2610.988, 182, 751.7123, 228.434, 344.561
MOTB, 51531884, 1, 1, 0.03035927, 1
RCIN, 51531888, 1496, 1510, 2014, 1624, 1147, 2016, 992, 1504, 0, 0, 0, 0, 0, 0
RCOU, 51531999, 1439, 1328, 1508, 1516, 1382, 1392, 1555, 1466, 1520, 1500, 0, 0
VIBE, 51532014, 6.686265, 2.989361, 12.07094, 0, 0, 0
IMU, 51532037, -0.0002063627, 0.02645225, 0.44031, 0.2094416, -0.8013599, -11.65633, 0, 0, 23.07756, 1, 1
IMU2, 51532037, -0.001512327, 0.03118792, 0.4710998, 0.3073897, -0.7459728, -12.6194, 0, 0, 27.75, 1, 1
IMU, 51551142, -0.1066792, -0.07425466, 0.4371046, -0.167019, -0.1569031, -11.78257, 0, 0, 23.12188, 1, 1
IMU2, 51551142, -0.1110243, -0.05293481, 0.4742424, -0.1654705, -0.0225445, -12.78303, 0, 0, 27.75, 1, 1
IMU, 51570755, -0.0886406, -0.007556614, 0.4674544, -0.6589211, -0.3611178, -12.88807, 0, 0, 23.03324, 1, 1
IMU2, 51570755, -0.1110881, -0.02782268, 0.5115615, -0.7959508, -0.5294891, -12.08365, 0, 0, 27.875, 1, 1
IMU, 51590692, 0.08443578, 0.04723272, 0.4900736, 0.04565283, 0.3278043, -12.88668, 0, 0, 23.03324, 1, 1
IMU2, 51590692, 0.05086472, 0.04380507, 0.5202447, 0.1568214, 0.3571981, -13.74468, 0, 0, 27.875, 1, 1
IMU, 51610596, 0.0750391, 0.05350266, 0.5066862, -0.2373247, -1.000149, -12.97412, 0, 0, 23.03324, 1, 1
IMU2, 51610596, 0.07566726, 0.03360309, 0.5469017, -0.04186586, -0.8322276, -14.33167, 0, 0, 27.875, 1, 1
CURR, 51625902, 340, 1527, 4396, 5151, 15.86113, 0
POWR, 51625906, 5.15, 5.07, 3
MAG, 51625933, 226, -71, 431, -64, -26, 69, 0, 0, 0, 1
MAG2, 51625937, -154, -52, 500, -25, 30, -503, 0, 0, 0, 1
BARO, 51629635, 0.7393865, 102538.1, 26.71, -0.3053948
CTUN, 51629644, 999, 0, 338.899, 0.9373538, 0.8044776, 0.73, 0.00, 0.00, 119, 58
ATT, 51631664, 0.00, -0.25, 0.00, 1.09, 12.69, 8.38, 0.05, 0.09
EKF1, 51631680, -0.25, 1.09, 8.38, -0.1738358, -0.06711696, -0.642112, -1.379643, 0.9159794, -0.8061585, 0.00, 0.00, 0.00
EKF2, 51631687, 48, 18, -30, 0.00, 0.00, 239, -59, 410, 0, 0, 0
EKF3, 51631691, 0.00, -0.05, -0.05, 0.24, -0.26, -0.04, -4, -12, -15, 0.00
EKF4, 51631714, 0.01, 0.07, 0.00, 0.02, 0.06, 0.08, 0.00, 0, 0, 0, 16, 9023
AHR2, 51631724, 0.27, 0.92, 12.10, 19.51, 41.489545, -71.4224223
POS, 51631779, 41.4895464, -71.4224249, 19.58, 0.8061585
RATE, 51631784, 23.06119, -826.8446, 1717, -757.2615, -106.2014, 74, 3592.625, 2962.293, 126, 634.7745, 334.3919, 339.1644
MOTB, 51631796, 1, 1, 0.02873285, 1
RCIN, 51631800, 1495, 1510, 2014, 1631, 1146, 2016, 993, 1504, 0, 0, 0, 0, 0, 0
RCOU, 51631899, 1392, 1489, 1539, 1399, 1512, 1364, 1426, 1518, 1520, 1500, 0, 0
VIBE, 51631914, 5.858064, 3.699478, 21.70886, 0, 0, 0
IMU, 51631929, -0.1586408, -0.01049333, 0.4998829, -0.2465063, -0.4691467, -12.87105, 0, 0, 23.12188, 1, 1
IMU2, 51631929, -0.1299915, -0.02657883, 0.5341561, -0.2029422, -0.4321143, -13.55643, 0, 0, 27.875, 1, 1
IMU, 51651049, -0.2332198, -0.06804731, 0.5110852, 0.1330281, -0.3787016, -12.71696, 0, 0, 23.07756, 1, 1
IMU2, 51651049, -0.2617106, -0.04889299, 0.5599971, -0.21777, -0.3239448, -13.22138, 0, 0, 27.875, 1, 1
UBX3, 51666244, 0, 1.164, 2.504, 0.18
GPS, 51666252, 3, 411695000, 1884, 7, 1.41, 41.489545, -71.422422, 0.25, 23.56, 0.07, 40.47, -0.05, 1
IMU, 51671476, -0.03739846, 0.03962795, 0.517809, -0.6435148, 0.2657764, -13.32237, 0, 0, 22.9446, 1, 1
IMU2, 51671476, -0.1013298, 0.007000474, 0.5609791, -0.6340365, 0.3353714, -14.33817, 0, 0, 27.875, 1, 1
IMU, 51691271, 0.2105151, 0.07774419, 0.5375503, -0.1596657, -0.1398987, -12.53642, 0, 0, 23.03324, 1, 1
IMU2, 51691271, 0.1841031, 0.08800514, 0.5816477, -0.1549519, -0.04964523, -13.41217, 0, 0, 27.875, 1, 1
IMU, 51711188, 0.1673482, 0.1096958, 0.5447556, 0.1181625, -0.6337553, -13.06508, 0, 0, 23.03324, 1, 1
IMU2, 51711188, 0.1856088, 0.09749944, 0.5857424, 0.3734402, -0.4616795, -13.99824, 0, 0, 27.875, 1, 1
CURR, 51726040, 331, 1539, 4141, 5164, 17.01317, 0
POWR, 51726044, 5.16, 5.08, 3
MAG, 51726071, 222, -80, 428, -64, -26, 69, 0, 0, 0, 1
MAG2, 51726125, -113, -115, 473, -25, 30, -503, 0, 0, 0, 1
BARO, 51730066, 0.7642167, 102537.9, 26.70, -0.4013779
CTUN, 51730076, 999, 0, 331.5291, 1.055762, 0.8773518, 0.76, 0.00, 0.00, 147, 92
ATT, 51731967, 0.00, -0.25, 0.00, 1.33, 15.13, 11.60, 0.05, 0.10
EKF1, 51731983, -0.25, 1.33, 11.60, -0.2287319, -0.1050363, -0.9707016, -1.413721, 0.9274135, -0.8797851, 0.00, 0.00, 0.00
EKF2, 51731990, 47, 18, -30, 0.00, 0.00, 239, -59, 410, 0, 0, 0
EKF3, 51731994, -0.05, 0.00, -0.17, 0.19, -0.25, -0.06, -5, -17, -12, 0.00
EKF4, 51732033, 0.03, 0.06, 0.00, 0.02, 0.09, 0.06, 0.00, 0, 0, 0, 16, 9023
AHR2, 51732043, 0.22, 1.12, 15.31, 19.54, 41.489545, -71.422422
POS, 51732067, 41.4895461, -71.4224247, 19.65, 0.8797851
RATE, 51732072, -14.47985, -712.4405, 2120, -916.711, 368.4839, -361, 3709.537, 3326.385, 86, 587.752, 316.3091, 332.5555
MOTB, 51732168, 1, 1, 0.02768225, 1
RCIN, 51732172, 1495, 1510, 2014, 1642, 1146, 2016, 993, 1503, 0, 0, 0, 0, 0, 0
RCOU, 51732239, 1410, 1356, 1497, 1512, 1374, 1393, 1526, 1482, 1520, 1500, 0, 0
VIBE, 51732254, 5.050122, 3.6795, 19.83941, 0, 0, 0
IMU, 51732269, -0.1453555, 0.06388947, 0.5600498, -0.3202637, -1.224433, -12.88655, 0, 0, 23.03324, 1, 1
IMU2, 51732269, -0.1033443, 0.06473485, 0.6010821, -0.3151465, -1.128454, -13.21163, 0, 0, 27.875, 1, 1
RAD, 51736431, 0, 0, 66, 31, 0, 0, 0
RAD, 51738508, 0, 0, 66, 31, 0, 0, 0
IMU, 51751286, -0.3141581, 0.02881221, 0.565567, 0.155301, 0.2338612, -12.00238, 0, 0, 23.12188, 1, 1
IMU2, 51751286, -0.328833, 0.0509019, 0.5977226, 0.1685229, 0.09995029, -12.78127, 0, 0, 27.875, 1, 1
IMU, 51771087, -0.07727293, 0.02326505, 0.5997037, -0.4769413, 0.02856421, -12.89525, 0, 0, 23.03324, 1, 1
IMU2, 51771087, -0.1476986, 0.08188104, 0.6504197, -0.6953574, -0.2958839, -13.34761, 0, 0, 27.875, 1, 1
IMU, 51791261, 0.2511423, 0.1869007, 0.6165664, -0.3970659, 0.9775356, -12.78563, 0, 0, 23.03324, 1, 1
IMU2, 51791261, 0.1717797, 0.1172608, 0.647044, 0.01223562, 0.7149107, -14.50855, 0, 0, 27.625, 1, 1
IMU, 51811037, 0.2930549, 0.2416925, 0.6473238, -0.3558464, -1.368919, -13.0973, 0, 0, 23.03324, 1, 1
IMU2, 51811037, 0.3256705, 0.1726537, 0.7015451, -0.2934219, -1.349671, -13.81396, 0, 0, 27.625, 1, 1
CURR, 51826239, 329, 1521, 4590, 5180, 18.29104, 0
POWR, 51826273, 5.18, 5.09, 3
MAG, 51826302, 213, -88, 434, -64, -26, 69, 0, 0, 0, 1
MAG2, 51826306, -171, -96, 490, -25, 30, -503, 0, 0, 0, 1
BARO, 51831261, 0.753181, 102538, 26.69, 0.08362239
CTUN, 51831275, 999, 0, 329.0105, 1.197844, 0.9821498, 0.75, 0.00, 0.00, 174, 128
ATT, 51833339, 0.00, -0.01, 0.00, 1.99, 18.47, 15.40, 0.05, 0.11
EKF1, 51833355, -0.01, 1.99, 15.40, -0.2734818, -0.1293646, -1.290544, -1.451337, 0.9353126, -0.9875471, 0.00, 0.00, 0.00
EKF2, 51833361, 47, 18, -30, 0.00, 0.00, 239, -59, 410, 0, 0, 0
EKF3, 51833402, -0.05, 0.00, -0.17, 0.19, -0.25, -0.16, -5, -23, -17, 0.00
EKF4, 51833429, 0.03, 0.06, 0.01, 0.02, 0.11, 0.08, 0.00, 0, 0, 0, 16, 9023
AHR2, 51833438, 0.41, 1.74, 19.11, 19.53, 41.489545, -71.422422
POS, 51833463, 41.4895457, -71.4224246, 19.76, 0.9875471
RATE, 51833468, -365.3574, 46.08386, 1767, -1318.489, 663.9631, -343, 5116.241, 4082.886, 187, 694.0845, 451.5277, 328.6749
MOTB, 51833481, 1, 1, 0.02880982, 1
RCIN, 51833485, 1496, 1510, 2014, 1698, 1146, 2017, 992, 1504, 0, 0, 0, 0, 0, 0
RCOU, 51833836, 1377, 1453, 1553, 1394, 1498, 1319, 1444, 1512, 1520, 1500, 0, 0
VIBE, 51833852, 7.208958, 7.468523, 22.08049, 0, 0, 0
IMU, 51833866, 0.01176203, 0.1244767, 0.6924824, -0.1405102, -1.202597, -13.79048, 0, 0, 22.9446, 1, 1
IMU2, 51833866, 0.004311359, 0.1072888, 0.7327191, 0.4186869, -1.613131, -14.94111, 0, 0, 27.625, 1, 1
IMU, 51852433, -0.3639185, -0.008812874, 0.7032497, -0.8728097, -0.3037439, -12.8043, 0, 0, 22.9446, 1, 1
IMU2, 51852433, -0.3746261, 3.413724E-05, 0.7412305, -0.3380271, -0.4008923, -13.85537, 0, 0, 27.75, 1, 1
UBX3, 51867523, 0, 1.161, 2.493, 0.33
GPS, 51867531, 3, 411695200, 1884, 7, 1.41, 41.4895449, -71.4224216, 0.46, 23.83, 0.19, 40.47, -1.07, 1
IMU, 51872537, -0.3466847, -0.07232837, 0.7145908, -0.1711914, 0.6169218, -13.42152, 0, 0, 23.03324, 1, 1
IMU2, 51872537, -0.4000811, -0.06103219, 0.7651585, -0.7679108, 0.9386694, -14.98846, 0, 0, 27.75, 1, 1
IMU, 51892364, 0.0203155, 0.07326525, 0.7418259, -0.1933907, 0.1211047, -13.98016, 0, 0, 23.03324, 1, 1
IMU2, 51892364, -0.007245486, 0.02770209, 0.807154, -0.3300076, 0.2556358, -14.54245, 0, 0, 27.75, 1, 1
IMU, 51912442, 0.3735824, 0.1107659, 0.7704704, -0.5468927, 0.3225707, -12.52978, 0, 0, 23.03324, 1, 1
IMU2, 51912442, 0.3429255, 0.1042131, 0.8057056, -0.03011507, -0.3522517, -15.09318, 0, 0, 27.75, 1, 1
CURR, 51927534, 287, 1528, 4714, 5177, 19.6176, 0
POWR, 51927538, 5.17, 5.09, 3
MAG, 51927567, 203, -106, 433, -64, -26, 69, 0, 0, 0, 1
MAG2, 51927571, -200, -120, 475, -25, 30, -503, 0, 0, 0, 1
BARO, 51932645, 1.001482, 102535.1, 26.68, 0.7037435
CTUN, 51932654, 999, 0, 285.6591, 1.364407, 1.128307, 1.00, 0.00, 0.00, 197, 168
ATT, 51934450, 0.00, 0.03, 0.00, 2.21, 22.63, 19.85, 0.05, 0.12
EKF1, 51934466, 0.03, 2.21, 19.85, -0.3893212, -0.1358351, -1.682401, -1.487233, 0.9377351, -1.135261, 0.00, 0.00, 0.00
EKF2, 51934473, 47, 18, -30, 0.00, 0.00, 239, -59, 410, 0, 0, 0
EKF3, 51934477, -0.29, 0.11, 0.46, 0.15, -0.26, -0.03, -6, -22, -15, 0.00
EKF4, 51934501, 0.10, 0.06, 0.00, 0.03, 0.12, 0.08, 0.00, 0, 0, 0, 16, 9023
AHR2, 51934550, 0.40, 1.93, 23.59, 19.78, 41.4895449, -71.4224216
POS, 51934574, 41.4895454, -71.4224246, 19.91, 1.135261
RATE, 51934579, -424.5615, 1172.266, 478, -1455.733, 877.1804, -1222, 4626.369, 4398.175, 71, 494.9177, 413.1296, 284.4258
MOTB, 51934591, 1, 1, 0.02670787, 1
RCIN, 51934595, 1496, 1510, 2014, 1681, 1146, 2016, 993, 1504, 0, 0, 0, 0, 0, 0
RCOU, 51934662, 1600, 1124, 1358, 1691, 1149, 1591, 1699, 1345, 1520, 1500, 0, 0
VIBE, 51934677, 8.181542, 7.925458, 21.2761, 0, 0, 0
IMU, 51934692, 0.1930903, 0.1797537, 0.7470903, -0.3674513, -0.5907393, -13.77884, 0, 0, 23.03324, 1, 1
IMU2, 51934692, 0.2160944, 0.1264442, 0.7881685, -0.24736, -0.6426423, -14.26003, 0, 0, 27.75, 1, 1
IMU, 51953889, -0.2670251, 0.06311387, 0.7453857, 0.1180261, -1.709051, -13.01595, 0, 0, 23.03324, 1, 1
IMU2, 51953889, -0.2188861, 0.08074319, 0.8146244, 0.0150865, -1.954513, -13.44523, 0, 0, 27.625, 1, 1
IMU, 51974091, -0.5254714, 0.03010453, 0.7575349, -0.07584739, -0.7872517, -12.98309, 0, 0, 23.03324, 1, 1
IMU2, 51974091, -0.5374402, 0.01919372, 0.8136449, -0.05929173, -0.7091924, -13.6854, 0, 0, 27.875, 1, 1
IMU, 51993901, -0.3370324, 0.006223711, 0.7418394, -1.119348, 0.3592216, -13.60621, 0, 0, 23.03324, 1, 1
IMU2, 51993901, -0.3778034, -0.008160484, 0.7932805, -0.8036973, 0.18476, -14.16399, 0, 0, 27.75, 1, 1
IMU, 52013951, 0.06696727, 0.1287408, 0.7059955, -1.2323, 0.5498575, -13.75245, 0, 0, 23.03324, 1, 1
IMU2, 52013951, -0.01715471, 0.05424402, 0.7569485, -1.227665, 0.5717793, -14.74111, 0, 0, 27.75, 1, 1
CURR, 52028979, 232, 1533, 4571, 5120, 20.90595, 0
POWR, 52028983, 5.12, 5.07, 3
MAG, 52029097, 184, -118, 436, -64, -26, 69, 0, 0, 0, 1
MAG2, 52029101, -221, -120, 454, -25, 30, -503, 0, 0, 0, 1
BARO, 52034141, 1.415318, 102530.3, 26.68, 0.9942489
CTUN, 52034151, 999, 0, 231.1882, 1.551001, 1.325374, 1.41, 0.00, 0.00, 215, 205
ATT, 52036094, 0.00, -0.69, 0.00, 2.51, 25.96, 24.19, 0.05, 0.13
EKF1, 52036164, -0.69, 2.51, 24.19, -0.4697779, -0.2157879, -2.077806, -1.526557, 0.9313716, -1.334085, 0.00, 0.00, 0.00
EKF2, 52036171, 47, 18, -30, 0.00, 0.00, 239, -59, 410, 0, 0, 0
EKF3, 52036175, -0.29, 0.11, 0.46, 0.15, -0.26, 0.22, -2, -29, -18, 0.00
EKF4, 52036199, 0.10, 0.06, 0.02, 0.01, 0.16, 0.10, 0.00, 0, 0, 0, 16, 9023
AHR2, 52036241, -0.38, 2.17, 27.93, 20.19, 41.4895449, -71.4224216
POS, 52036266, 41.489545, -71.4224247, 20.11, 1.334085
RATE, 52036271, 138.5612, 1665.149, -1848, -1768.235, 605.0438, -1114, 3942.069, 4010.794, 17, 303.7914, 347.3162, 229.882
MOTB, 52036283, 1, 1, 0.02625452, 1
RCIN, 52036344, 1496, 1510, 2014, 1666, 1146, 2016, 993, 1503, 0, 0, 0, 0, 0, 0
RCOU, 52036450, 1512, 1124, 1403, 1661, 1124, 1512, 1661, 1403, 1520, 1500, 0, 0
VIBE, 52036502, 7.817892, 5.752402, 19.31532, 0, 0, 0
IMU, 52036517, 0.2968664, 0.1244317, 0.6772307, -0.6231672, -0.2898951, -13.01227, 0, 0, 22.98892, 1, 1
IMU2, 52036517, 0.284364, 0.08677105, 0.7228084, -0.7854548, -0.2182637, -13.75026, 0, 0, 27.75, 1, 1
IMU, 52055265, 0.1168452, 0.1044707, 0.6639777, -0.6127342, -1.22752, -13.13857, 0, 0, 23.03324, 1, 1
IMU2, 52055265, 0.1224409, 0.09652428, 0.7126005, -0.5916671, -1.190879, -13.08313, 0, 0, 27.75, 1, 1
UBX3, 52070331, 0, 1.157, 2.478, 0.3
GPS, 52070339, 3, 411695400, 1884, 7, 1.41, 41.4895445, -71.4224215, 0.84, 24.07, 0.25, 117.01, -1.44, 1
IMU, 52075852, -0.2058582, 0.008712362, 0.6512771, -0.5077203, -1.145879, -12.3194, 0, 0, 23.03324, 1, 1
IMU2, 52075852, -0.2165854, -0.002187209, 0.6955538, -0.3764868, -1.034854, -12.5588, 0, 0, 27.75, 1, 1
IMU, 52095236, -0.3322807, -0.08741801, 0.6584731, -0.8931789, -0.1981125, -12.15386, 0, 0, 23.03324, 1, 1
IMU2, 52095236, -0.3603109, -0.08677555, 0.7035179, -0.8748919, -0.4153832, -12.72011, 0, 0, 27.75, 1, 1
IMU, 52115260, -0.1219097, -0.08414046, 0.6381759, -0.5579344, 0.2862294, -12.0245, 0, 0, 23.03324, 1, 1
IMU2, 52115260, -0.1546931, -0.09166478, 0.6920382, -0.6447966, 0.2871476, -13.30653, 0, 0, 27.75, 1, 1
CURR, 52130240, 192, 1565, 3669, 5191, 21.93823, 0
POWR, 52130244, 5.19, 5.05, 3
MAG, 52130273, 177, -130, 432, -64, -26, 69, 0, 0, 0, 1
MAG2, 52130277, -102, -151, 443, -25, 30, -503, 0, 0, 0, 1
BARO, 52135510, 1.354622, 102531, 26.67, 1.497747
CTUN, 52135520, 999, 0, 192.5587, 1.754758, 1.56563, 1.35, 0.00, 0.00, 227, 236
ATT, 52137572, 0.00, -0.82, 0.00, 2.34, 29.38, 28.14, 0.07, 0.15
EKF1, 52137589, -0.82, 2.34, 28.14, -0.5506667, -0.2965013, -2.365108, -1.581784, 0.9251485, -1.575205, 0.00, 0.00, 0.00
EKF2, 52137596, 48, 18, -30, 0.00, 0.00, 239, -59, 410, 0, 0, 0
EKF3, 52137600, -0.05, -0.15, 0.08, 0.12, -0.25, -0.05, -8, -30, -13, 0.00
EKF4, 52137623, 0.03, 0.05, 0.00, 0.03, 0.13, 0.05, 0.00, 0, 0, 0, 16, 9023
AHR2, 52137633, -0.56, 1.99, 31.89, 20.13, 41.4895445, -71.4224215
POS, 52137658, 41.4895445, -71.4224248, 20.35, 1.575205
RATE, 52137662, 267.9061, 1270.982, -2472, -1676.368, -69.68799, -1207, 4274.438, 3878.763, 81, 182.6601, 171.4717, 191.215
MOTB, 52137674, 1, 1, 0.02405399, 1
RCIN, 52137679, 1496, 1510, 2014, 1683, 1146, 2016, 992, 1504, 0, 0, 0, 0, 0, 0
RCOU, 52137800, 1398, 1124, 1312, 1486, 1149, 1385, 1497, 1297, 1520, 1500, 0, 0
VIBE, 52137865, 5.574697, 5.262624, 16.51598, 0, 0, 0
IMU, 52137879, 0.2342788, -0.004889258, 0.651064, -0.8988033, -0.2962455, -11.18003, 0, 0, 22.98892, 1, 1
IMU2, 52137879, 0.2093538, -0.0194332, 0.7028884, -0.86738, -0.2390691, -12.0698, 0, 0, 27.75, 1, 1
IMU, 52156744, 0.3486051, -0.01819082, 0.6474617, -0.7994992, -0.1003747, -11.56428, 0, 0, 22.90028, 1, 1
IMU2, 52156744, 0.3443637, 0.001058802, 0.6879717, -0.7994199, -0.4462236, -13.31986, 0, 0, 27.75, 1, 1
IMU, 52177001, 0.1946097, 0.002497016, 0.6343004, -0.2197705, -0.6917022, -11.34193, 0, 0, 22.90028, 1, 1
IMU2, 52177001, 0.1892843, 0.01785024, 0.682151, -0.2447167, -0.5513954, -12.04742, 0, 0, 27.75, 1, 1
IMU, 52196802, -0.03298761, -0.0141046, 0.6612689, -0.8033792, -1.125275, -10.12263, 0, 0, 23.03324, 1, 1
IMU2, 52196802, -0.04313501, 0.008267449, 0.7081572, -0.3361249, -1.040289, -9.8182, 0, 0, 27.75, 1, 1
IMU, 52216781, -0.1657923, -0.01251511, 0.6599767, -0.8994396, 0.4121551, -10.25098, 0, 0, 22.98892, 1, 1
IMU2, 52216781, -0.1939133, -0.03294734, 0.6898415, -0.7485599, 0.8600703, -10.66655, 0, 0, 27.75, 1, 1
CURR, 52231974, 202, 1575, 3101, 5180, 22.81483, 0
POWR, 52231978, 5.18, 5.09, 3
MAG, 52232008, 165, -139, 431, -64, -26, 69, 0, 0, 0, 1
MAG2, 52232011, -118, -135, 476, -25, 30, -503, 0, 0, 0, 1
DU32, 52232033, 7, 337272
BARO, 52237070, 1.247025, 102532.3, 26.66, 1.904745
CTUN, 52237080, 999, 0, 202.856, 1.972829, 1.809816, 1.24, 0.00, 0.00, 237, 245
ATT, 52239211, 0.00, -0.35, 0.00, 2.22, 33.38, 32.13, 0.07, 0.15
EKF1, 52239228, -0.35, 2.22, 32.13, -0.6382366, -0.3486109, -2.452189, -1.64847, 0.916279, -1.819612, 0.00, 0.00, 0.00
EKF2, 52239234, 48, 18, -30, 0.00, 0.00, 239, -59, 410, 0, 0, 0
EKF3, 52239238, -0.05, -0.15, 0.08, 0.12, -0.25, -0.40, -6, -28, -11, 0.00
EKF4, 52239262, 0.03, 0.05, 0.03, 0.03, 0.15, 0.06, 0.00, 0, 0, 0, 16, 9023
AHR2, 52239271, -0.04, 1.87, 35.84, 20.02, 41.4895445, -71.4224215
POS, 52239296, 41.4895439, -71.4224249, 20.59, 1.819612
RATE, 52239301, -87.90285, -284.2497, -578, -1528.784, -519.9136, -52, 4636.534, 3919.398, 144, 133.5753, 81.4497, 203.4952
MOTB, 52239367, 1, 1, 0.02532951, 1
RCIN, 52239371, 1496, 1510, 2014, 1695, 1146, 2016, 993, 1504, 0, 0, 0, 0, 0, 0
RCOU, 52239522, 1216, 1206, 1364, 1290, 1258, 1156, 1332, 1325, 1520, 1500, 0, 0
VIBE, 52239537, 5.933656, 5.853547, 16.22388, 0, 0, 0
IMU, 52239555, -0.03785088, -0.09279735, 0.6592516, -0.2044328, -0.0653982, -10.24585, 0, 0, 22.90028, 1, 1
IMU2, 52239555, -0.06139787, -0.08868468, 0.7088864, -0.1442968, -0.2572097, -11.13594, 0, 0, 27.875, 1, 1
IMU, 52258621, 0.1588379, -0.1306985, 0.6684743, -0.608133, 0.285217, -9.55759, 0, 0, 22.90028, 1, 1
IMU2, 52258621, 0.1177003, -0.1506313, 0.7085756, -0.4977508, 0.3065901, -10.10109, 0, 0, 27.75, 1, 1
UBX3, 52273270, 0, 1.153, 2.475, 0.31
GPS, 52273278, 3, 411695600, 1884, 7, 1.41, 41.4895437, -71.4224217, 1.32, 24.42, 0.52, 178.03, -2.31, 1
IMU, 52278706, 0.2234599, -0.1841048, 0.6700402, -0.3315682, 0.07426268, -8.696027, 0, 0, 22.90028, 1, 1
IMU2, 52278706, 0.2087608, -0.1829812, 0.7197724, -0.4152732, 0.1789343, -9.075613, 0, 0, 27.75, 1, 1
IMU, 52298349, 0.1283719, -0.1741214, 0.6819898, -0.5731214, -0.8059938, -9.419466, 0, 0, 22.98892, 1, 1
IMU2, 52298349, 0.135735, -0.1782058, 0.7365609, -0.6170343, -0.9093515, -9.930878, 0, 0, 27.75, 1, 1
IMU, 52318271, -0.02037447, -0.1034156, 0.6728427, -0.42161, 0.1693107, -8.755459, 0, 0, 22.90028, 1, 1
IMU2, 52318271, -0.01999024, -0.1187437, 0.7228712, -0.3806387, 0.04901683, -9.355872, 0, 0, 27.75, 1, 1
CURR, 52333335, 281, 1591, 2075, 5180, 23.39911, 0
POWR, 52333339, 5.18, 5.07, 3
MAG, 52333368, 157, -151, 428, -64, -26, 69, 0, 0, 0, 1
MAG2, 52333372, -24, -126, 477, -25, 30, -503, 0, 0, 0, 1
BARO, 52338332, 1.525674, 102529, 26.64, 1.386633
CTUN, 52338342, 999, 0, 283.8175, 2.203739, 2.038727, 1.52, 0.00, 0.00, 248, 238
ATT, 52340062, 0.00, 0.19, 0.00, 1.39, 37.52, 36.21, 0.06, 0.16
EKF1, 52340129, 0.19, 1.39, 36.21, -0.6956289, -0.3792713, -2.375908, -1.72475, 0.899597, -2.047942, 0.00, 0.00, 0.00
EKF2, 52340223, 46, 17, -30, 0.00, 0.00, 239, -59, 410, 0, 0, 0
EKF3, 52340230, -0.03, 0.05, 0.18, 0.13, -0.24, -0.37, -5, -25, -9, 0.00
EKF4, 52340254, 0.03, 0.05, 0.03, 0.03, 0.13, 0.05, 0.00, 0, 0, 0, 16, 9023
AHR2, 52340298, 0.46, 1.04, 39.91, 20.3, 41.4895437, -71.4224217
POS, 52340323, 41.4895433, -71.4224251, 20.82, 2.047942
RATE, 52340609, -374.7726, -602.0665, 658, -890.5869, -298.888, -883, 4712.793, 4137.925, 121, 174.9251, -146.7831, 286.1805
MOTB, 52340621, 1, 1, 0.03004679, 1
RCIN, 52340625, 1495, 1510, 2014, 1697, 1146, 2017, 992, 1504, 0, 0, 0, 0, 0, 0
RCOU, 52340728, 1231, 1366, 1504, 1339, 1399, 1179, 1374, 1477, 1520, 1500, 0, 0
