FMT, 128, 89, FMT, BBnNZ, Type,Length,Name,Format,Columns
FMT, 129, 23, PARM, Nf, Name,Value
FMT, 130, 45, GPS, BIHBcLLeeEefI, Status,TimeMS,Week,NSats,HDop,Lat,Lng,RelAlt,Alt,Spd,GCrs,VZ,T
FMT, 131, 31, IMU, Iffffff, TimeMS,GyrX,GyrY,GyrZ,AccX,AccY,AccZ
FMT, 132, 67, MSG, Z, Message
FMT, 133, 35, RCIN, Ihhhhhhhhhhhhhh, TimeMS,C1,C2,C3,C4,C5,C6,C7,C8,C9,C10,C11,C12,C13,C14
FMT, 134, 23, RCOU, Ihhhhhhhh, TimeMS,Chan1,Chan2,Chan3,Chan4,Chan5,Chan6,Chan7,Chan8
FMT, 136, 21, BARO, Iffcf, TimeMS,Alt,Press,Temp,CRt
FMT, 137, 13, POWR, ICCH, TimeMS,Vcc,VServo,Flags
FMT, 145, 41, CMD, IHHHfffffff, TimeMS,CTot,CNum,CId,Prm1,Prm2,Prm3,Prm4,Lat,Lng,Alt
FMT, 146, 16, RAD, IBBBBBHH, TimeMS,RSSI,RemRSSI,TxBuf,Noise,RemNoise,RxErrors,Fixed
FMT, 148, 31, CAM, IHLLeeccC, GPSTime,GPSWeek,Lat,Lng,Alt,RelAlt,Roll,Pitch,Yaw
FMT, 144, 46, GPS2, BIHBcLLeEefIBI, Status,TimeMS,Week,NSats,HDop,Lat,Lng,Alt,Spd,GCrs,VZ,T,DSc,DAg
FMT, 135, 31, IMU2, Iffffff, TimeMS,GyrX,GyrY,GyrZ,AccX,AccY,AccZ
FMT, 149, 31, IMU3, Iffffff, TimeMS,GyrX,GyrY,GyrZ,AccX,AccY,AccZ
FMT, 138, 25, AHR2, IccCfLL, TimeMS,Roll,Pitch,Yaw,Alt,Lat,Lng
FMT, 139, 25, SIM, IccCfLL, TimeMS,Roll,Pitch,Yaw,Alt,Lat,Lng
FMT, 140, 43, EKF1, IccCffffffccc, TimeMS,Roll,Pitch,Yaw,VN,VE,VD,PN,PE,PD,GX,GY,GZ
FMT, 141, 26, EKF2, Ibbbcchhhhhh, TimeMS,AX,AY,AZ,VWN,VWE,MN,ME,MD,MX,MY,MZ
FMT, 142, 27, EKF3, Icccccchhhc, TimeMS,IVN,IVE,IVD,IPN,IPE,IPD,IMX,IMY,IMZ,IVT
FMT, 143, 25, EKF4, IcccccccbbBB, TimeMS,SV,SP,SH,SMX,SMY,SMZ,SVT,OFN,EFE,FS,DS
FMT, 150, 30, TERR, IBLLHffHH, TimeMS,Status,Lat,Lng,Spacing,TerrH,CHeight,Pending,Loaded
FMT, 151, 12, UBX1, IBHBB, TimeMS,Instance,noisePerMS,jamInd,aPower
FMT, 152, 12, UBX2, IBbBbB, TimeMS,Instance,ofsI,magI,ofsQ,magQ
FMT, 25, 25, ATUN, BBfffff, Axis,TuneStep,RateMin,RateMax,RPGain,RDGain,SPGain
FMT, 26, 9, ATDE, cf, Angle,Rate
FMT, 9, 23, CURR, IhIhhhf, TimeMS,ThrOut,ThrInt,Volt,Curr,Vcc,CurrTot
FMT, 12, 20, OF, hhBccee, Dx,Dy,SQual,X,Y,Roll,Pitch
FMT, 5, 47, NTUN, Iffffffffff, TimeMS,DPosX,DPosY,PosX,PosY,DVelX,DVelY,VelX,VelY,DAccX,DAccY
FMT, 4, 33, CTUN, Ihhhffecchh, TimeMS,ThrIn,AngBst,ThrOut,DAlt,Alt,BarAlt,DSAlt,SAlt,DCRt,CRt
FMT, 15, 25, MAG, Ihhhhhhhhh, TimeMS,MagX,MagY,MagZ,OfsX,OfsY,OfsZ,MOfsX,MOfsY,MOfsZ
FMT, 27, 25, MAG2, Ihhhhhhhhh, TimeMS,MagX,MagY,MagZ,OfsX,OfsY,OfsZ,MOfsX,MOfsY,MOfsZ
FMT, 28, 25, MAG3, Ihhhhhhhhh, TimeMS,MagX,MagY,MagZ,OfsX,OfsY,OfsZ,MOfsX,MOfsY,MOfsZ
FMT, 6, 17, PM, HHIhBHB, NLon,NLoop,MaxT,PMT,I2CErr,INSErr,INAVErr
FMT, 1, 23, ATT, IccccCCCC, TimeMS,DesRoll,Roll,DesPitch,Pitch,DesYaw,Yaw,ErrRP,ErrYaw
FMT, 3, 6, MODE, Mh, Mode,ThrCrs
FMT, 10, 3, STRT, , 
FMT, 13, 4, EV, B, Id
FMT, 20, 6, D16, Bh, Id,Value
FMT, 21, 6, DU16, BH, Id,Value
FMT, 22, 8, D32, Bi, Id,Value
FMT, 23, 8, DU32, BI, Id,Value
FMT, 24, 8, DFLT, Bf, Id,Value
FMT, 19, 5, ERR, BB, Subsys,ECode
MSG, ArduCopter V3.2.1 (36b405fb)
MSG, PX4: ce602658 NuttX: 475b8c15
MSG, PX4v2 00520037 30345106 36353832
MSG, Frame: OCTA_QUAD
MODE, AltHold, 499
EV, 10
MODE, AltHold, 499
GPS, 3, 507930200, 1885, 9, 1.64, 41.4894604, -71.4224134, -4.44, 22.61, 0.11, 223.30, 0.03, 902549
IMU, 902553, -0.000416439, -0.001240924, -0.0001246491, 0.1509455, -0.1869218, -9.866296
IMU2, 902553, 0.001085006, -0.0002668127, 0.002486963, 0.1614952, -0.1721961, -9.801931
GPS, 3, 507930800, 1885, 9, 1.64, 41.4894602, -71.422413, 0.00, 22.68, 0.04, 223.30, -0.11, 902569
IMU, 902573, -0.0003645234, 6.689876E-05, -0.001012387, 0.1657294, -0.1850356, -9.875351
IMU2, 902573, 0.001611881, -0.0004249588, -0.003895599, 0.2533783, -0.174233, -9.742112
MAG, 902592, 196, 33, 508, -107, -17, 71, 0, 0, 0
MAG2, 902592, 184, -56, 466, -19, 19, -505, 0, 0, 0
ATT, 902593, 0.00, -0.63, 0.00, -0.25, 338.04, 338.04, 0.44, 0.01
EKF1, 902594, -2.18, -1.38, 333.72, -0.05583675, 0.01096079, 0.0723225, -0.01893108, 0.008436839, 4.30534, 0.00, 0.00, 0.00
EKF2, 902594, 50, 0, 0, 0.00, 0.00, 191, -47, 505, 107, 17, -71
EKF3, 902594, -0.11, 0.05, 0.18, 0.03, -0.02, 0.12, -1, 1, -32, 0.00
EKF4, 902594, 0.03, 0.00, 0.01, 0.01, 0.00, 0.21, 0.00, 0, 0, 1, 12
AHR2, 902594, -2.18, -1.38, 333.72, 18.22, 41.4894606, -71.4224133
RCIN, 902594, 2015, 2016, 992, 2016, 1146, 1464, 993, 1504, 0, 0, 0, 0, 0, 0
RCOU, 902594, 1082, 1082, 1082, 1082, 1082, 1082, 1082, 1082
IMU, 902594, -0.006047951, -0.004351549, 0.01038056, 0.1548713, -0.2297937, -9.776352
IMU2, 902594, -0.01491619, -0.0008497611, 0.01778349, 0.187791, -0.1850584, -9.493694
IMU, 902614, 0.001241654, 0.002330486, 0.005751688, 0.08903508, -0.2110053, -9.891709
IMU2, 902614, 0.005536824, 0.003941048, 0.003641825, 0.03640664, -0.1251642, -9.790397
BARO, 902632, -0.1172132, 100798.1, 17.28, 1.1114
CTUN, 902632, 0, 0, 0, -0.008728864, 0, -0.11, 0.00, 0.00, 0, -17
IMU, 902634, -0.005306584, -0.002627295, -0.01761165, -0.005481297, -0.6219714, -9.469736
IMU2, 902634, -0.01853435, -0.005001701, -0.02195913, -0.08550787, -0.6584909, -9.195068
IMU, 902654, -0.03724302, -0.04107239, -0.01552822, 0.4959144, -0.2641835, -9.822464
IMU2, 902654, -0.05779441, -0.03408911, -0.01349622, 0.4214932, -0.1236638, -9.5953
IMU, 902674, -0.006457064, -0.005708497, -0.02466156, -0.1143819, -0.1180184, -10.16657
IMU2, 902674, 0.01031355, 0.0162779, -0.02405112, -0.1152823, -0.006231666, -10.12866
MAG, 902691, 199, 31, 513, -107, -17, 71, 0, 0, 0
MAG2, 902691, 156, -57, 465, -19, 19, -505, 0, 0, 0
ATT, 902694, 0.00, -0.64, 0.00, -0.51, 338.00, 338.00, 0.44, 0.02
EKF1, 902694, -2.22, -1.39, 333.68, -0.0340073, -0.02677838, 0.04634574, -0.03055524, 0.01195847, 1.646967, 0.00, 0.00, 0.00
EKF2, 902694, 50, 0, 0, 0.00, 0.00, 191, -47, 505, 107, 17, -71
EKF3, 902694, -0.11, 0.05, 0.18, 0.03, -0.02, 4.18, -4, 3, -3, 0.00
EKF4, 902694, 0.03, 0.00, 0.08, 0.02, 0.02, 0.02, 0.00, 0, 0, 1, 12
AHR2, 902694, -2.22, -1.39, 333.68, 20.88, 41.4894605, -71.4224133
RCIN, 902694, 2015, 2016, 992, 2016, 1147, 1464, 992, 1504, 0, 0, 0, 0, 0, 0
RCOU, 902695, 1082, 1082, 1082, 1082, 1082, 1082, 1082, 1082
IMU, 902698, 0.003229648, 0.01573349, 0.03886198, -0.2610823, 0.02082649, -9.56798
IMU2, 902698, -0.01406016, 0.009875167, 0.04824158, -0.1995637, -0.007835269, -9.410886
IMU, 902718, 0.003751492, -0.02065365, 0.08486797, 0.05350674, -0.1084825, -10.045
IMU2, 902718, -0.0140429, -0.02529517, 0.1039563, 0.1168429, -0.03694296, -9.695897
GPS, 3, 507930800, 1885, 9, 1.64, 41.4894602, -71.4224129, -0.01, 22.77, 0.09, 223.30, 0.02, 902730
BARO, 902733, -0.1065574, 100798, 17.27, 1.284212
CTUN, 902733, 0, 0, 0, -0.01860019, -0.01, -0.10, 0.00, 0.00, 0, -17
IMU, 902738, -0.006135415, -0.00219192, 0.05775756, 0.351468, -0.3113963, -9.981365
IMU2, 902738, -0.006353896, 0.01711652, 0.04972659, 0.4089613, -0.2920149, -9.956292
IMU, 902757, 0.0313656, 0.05411804, -0.02790368, 0.4297768, -0.16391, -9.461513
IMU2, 902757, 0.02875049, 0.06732991, -0.04492944, 0.3586335, -0.1242326, -9.271907
IMU, 902778, -0.002428291, -0.01010347, -0.06317811, -0.2936189, -0.7379093, -9.686604
IMU2, 902778, -0.001640566, -0.01740245, -0.06448373, -0.1556318, -0.6950331, -9.538826
MAG, 902792, 199, 34, 509, -107, -17, 71, 0, 0, 0
MAG2, 902792, 168, -57, 468, -19, 19, -505, 0, 0, 0
ATT, 902795, 0.00, -0.62, 0.00, -0.60, 338.07, 338.07, 0.06, 0.01
EKF1, 902795, -2.25, -1.38, 333.74, -0.01979404, -0.06626766, 0.03915267, -0.0365967, 0.01251249, -0.5082018, 0.00, 0.00, 0.00
EKF2, 902795, 49, 0, 0, 0.00, 0.00, 191, -47, 505, 107, 17, -71
EKF3, 902795, -0.11, -0.08, 0.02, 0.02, -0.02, 2.71, -3, 4, -8, 0.00
EKF4, 902795, 0.02, 0.00, 0.19, 0.02, 0.03, 0.05, 0.00, 0, 0, 1, 0
AHR2, 902795, -2.25, -1.38, 333.74, 23.03, 41.4894604, -71.4224133
RCIN, 902795, 2016, 2016, 992, 2016, 1146, 1464, 993, 1503, 0, 0, 0, 0, 0, 0
RCOU, 902795, 1082, 1082, 1082, 1082, 1082, 1082, 1082, 1082
IMU, 902798, -0.03013096, -0.02481581, -0.07166547, 1.400333, 0.07852582, -10.4729
IMU2, 902798, -0.02739267, 0.02503822, -0.1012609, 1.579637, 0.0962472, -11.58888
IMU, 902818, -0.002921687, -0.01234746, -0.2318925, -0.2724057, -0.12174, -9.563471
IMU2, 902818, -0.046275, -0.03689206, -0.2067142, -0.3701401, -0.0270685, -9.264678
BARO, 902833, -0.1385247, 100798.3, 17.27, 1.971019
CTUN, 902833, 0, 0, 0, -0.04229857, -0.03, -0.13, 0.00, 0.00, 0, -18
DU32, 7, 682457
CURR, 902835, 0, 0, 1611, 355, 5214, 110.6565
POWR, 902835, 5.21, 5.07, 39
IMU, 902837, -0.1140179, -0.1900951, -0.02551804, -0.4507785, -0.5609802, -11.0813
IMU2, 902837, -0.1433584, -0.169949, 0.0103283, -0.04031706, -0.4491758, -11.13933
IMU, 902857, -0.01857954, -0.002322536, 0.1638917, 0.3008745, 1.824495, -10.13372
IMU2, 902857, -0.001050435, 0.03249523, 0.2196512, 0.4069734, 1.871002, -10.15267
IMU, 902877, 0.1215444, 0.1591055, 0.27187, -0.07844758, -0.2180081, -9.666211
IMU2, 902877, 0.1267793, 0.1806002, 0.2977934, -0.1197597, -0.2473549, -9.457807
MAG, 902893, 201, 34, 512, -107, -17, 71, 0, 0, 0
MAG2, 902893, 168, -60, 469, -19, 19, -505, 0, 0, 0
ATT, 902895, 0.00, -0.58, 0.00, -0.52, 338.34, 338.34, 0.06, 0.01
EKF1, 902895, -2.26, -1.32, 333.99, 0.0007202253, -0.07370593, 0.01494714, -0.03817925, 0.01042657, -0.8640548, 0.00, 0.00, 0.00
EKF2, 902895, 49, 0, 0, 0.00, 0.00, 191, -47, 505, 107, 17, -71
EKF3, 902895, -0.11, -0.08, 0.02, 0.02, -0.02, -0.29, -4, 1, -4, 0.00
EKF4, 902895, 0.02, 0.00, 0.02, 0.02, 0.01, 0.02, 0.00, 0, 0, 1, 0
AHR2, 902895, -2.26, -1.32, 333.99, 23.39, 41.4894604, -71.4224133
RCIN, 902895, 2015, 2016, 992, 2016, 1147, 1464, 992, 1504, 0, 0, 0, 0, 0, 0
RCOU, 902896, 1082, 1082, 1082, 1082, 1082, 1082, 1082, 1082
IMU, 902897, 0.08698262, 0.1051925, 0.1318516, -0.07996091, -1.068108, -10.04317
IMU2, 902897, 0.06838463, 0.07874364, 0.1109688, -0.1288223, -0.9866216, -9.718689
IMU, 902918, -0.03541538, -0.04019117, -0.02203704, 0.404948, -0.4587576, -9.557091
IMU2, 902918, -0.06245608, -0.04926718, -0.04314505, 0.5078924, -0.4361843, -9.484232
GPS, 3, 507931800, 1885, 9, 1.64, 41.4894604, -71.4224125, -0.06, 22.77, 0.08, 223.30, -0.07, 902930
BARO, 902934, 0.02397542, 100796.4, 17.26, 1.96525
CTUN, 902934, 0, 0, 0, -0.06638246, -0.06, 0.02, 0.00, 0.00, 0, -18
IMU, 902939, -0.06082389, -0.06756631, -0.22066, -0.05338571, -0.6316017, -9.482768
IMU2, 902939, -0.05167458, -0.03612491, -0.2545669, -0.2349802, -0.5033762, -9.564216
IMU, 902959, 0.04460354, 0.04762479, -0.2002016, 0.4629456, 0.65196, -10.22339
IMU2, 902959, 0.04150999, 0.05395408, -0.1929241, 0.6531318, 0.6511439, -9.786786
RAD, 902970, 25, 0, 86, 36, 0, 0, 0
IMU, 902979, -0.001084287, -0.01310346, -0.0147847, -0.3334647, -0.511852, -10.29834
IMU2, 902979, -0.001581125, -0.01253638, 0.01460014, -0.1993393, -0.494134, -10.33118
RAD, 902989, 25, 0, 86, 36, 0, 0, 0
MAG, 902994, 200, 33, 509, -107, -17, 71, 0, 0, 0
MAG2, 902994, 166, -59, 470, -19, 19, -505, 0, 0, 0
ATT, 902997, 0.00, -0.66, 0.00, -0.54, 337.83, 337.83, 0.05, 0.01
EKF1, 902997, -2.32, -1.35, 333.49, 0.01092681, -0.1212147, 0.02310106, -0.03682076, 0.005318643, -0.6890907, 0.00, 0.00, 0.00
EKF2, 902997, 50, 0, 0, 0.00, 0.00, 191, -47, 505, 107, 17, -71
EKF3, 902997, -0.07, 0.02, 0.11, 0.00, -0.06, -0.86, -5, 1, -7, 0.00
EKF4, 902997, 0.02, 0.01, 0.07, 0.03, 0.00, 0.04, 0.00, 0, 0, 1, 0
AHR2, 902997, -2.32, -1.35, 333.49, 23.21, 41.4894604, -71.4224134
RCIN, 902997, 2016, 2016, 992, 2016, 1146, 1464, 993, 1503, 0, 0, 0, 0, 0, 0
RCOU, 902998, 1082, 1082, 1082, 1082, 1082, 1082, 1082, 1082
IMU, 903000, 0.01401305, 0.006963227, -0.02355978, 0.1419427, -0.1537849, -10.17599
IMU2, 903000, 0.01724499, 0.01415489, -0.01722303, 0.2006495, -0.09808648, -10.14057
IMU, 903021, -0.02125925, -0.02166879, 0.1037081, 0.4713019, 0.1402758, -9.698729
IMU2, 903021, -0.04155715, -0.04006536, 0.1356343, 0.514455, 0.05838072, -9.556227
BARO, 903036, 0.2717214, 100793.5, 17.25, 1.33842
CTUN, 903036, 0, 0, 0, -0.08005733, -0.07, 0.27, 0.00, 0.00, 0, -18
IMU, 903041, 0.01826786, 0.004259266, 0.1398851, -0.05047388, -0.3226054, -10.51608
IMU2, 903041, 0.03987968, 0.00945951, 0.1618993, -0.0182004, -0.2726396, -10.53268
IMU, 903061, 0.01608957, 0.04043012, 0.1046409, 0.5808071, 0.02185593, -9.371083
IMU2, 903061, 0.003219657, 0.01975207, 0.1005879, 0.4335469, 0.07351148, -9.080803
IMU, 903081, 0.02449808, 0.01096201, 0.004879915, -0.2776129, -0.6633219, -10.09957
IMU2, 903081, 0.02789374, 0.003567837, -0.001392884, -0.3558943, -0.6459761, -9.884233
MAG, 903097, 199, 33, 511, -107, -17, 71, 0, 0, 0
MAG2, 903097, 168, -58, 470, -19, 19, -505, 0, 0, 0
ATT, 903099, 0.00, -0.69, 0.00, -0.56, 338.23, 338.23, 0.05, 0.01
EKF1, 903099, -2.32, -1.37, 333.88, 0.01845101, -0.1617304, 0.02528198, -0.03279462, -0.002837812, -0.5568395, 0.00, 0.00, 0.00
EKF2, 903099, 50, 0, 0, 0.00, 0.00, 191, -47, 505, 107, 17, -71
EKF3, 903099, -0.07, 0.02, 0.11, 0.00, -0.06, -0.47, -4, 1, -4, 0.00
EKF4, 903099, 0.02, 0.01, 0.04, 0.02, 0.01, 0.02, 0.00, 0, 0, 1, 0
AHR2, 903099, -2.32, -1.37, 333.88, 23.08, 41.4894605, -71.4224134
RCIN, 903099, 2015, 2016, 992, 2016, 1146, 1464, 993, 1504, 0, 0, 0, 0, 0, 0
RCOU, 903100, 1082, 1082, 1082, 1082, 1082, 1082, 1082, 1082
IMU, 903101, -0.06674135, -0.07078317, -0.06881389, 0.3960716, -0.3156894, -9.56203
IMU2, 903101, -0.1000245, -0.07788739, -0.08254986, 0.3240894, -0.2989439, -9.434282
GPS, 3, 507932000, 1885, 9, 1.64, 41.4894606, -71.4224124, -0.07, 22.78, 0.02, 223.30, 0.06, 903114
IMU, 903123, 0.001102099, -0.0209471, -0.1232684, 0.1286808, 0.2560095, -10.39619
IMU2, 903123, 0.01806515, 0.009591714, -0.1197344, 0.3282638, 0.367528, -10.37315
BARO, 903138, 0.3543034, 100792.5, 17.26, 1.066476
CTUN, 903139, 0, 0, 0, -0.07720942, -0.07, 0.35, 0.00, 0.00, 0, -17
IMU, 903143, -0.006288784, 0.02140466, -0.05191425, 0.04217294, -0.1830254, -9.412979
IMU2, 903143, -0.01340807, 0.01669342, -0.05325771, -0.07347381, -0.2730678, -9.225898
IMU, 903163, 0.06192864, 0.04948121, 0.03344361, -0.07547985, 0.4721583, -10.61343
IMU2, 903163, 0.06308485, 0.05037622, 0.05615943, 0.1740288, 0.5506442, -10.45184
IMU, 903184, 0.00560784, 0.01301809, 0.06372523, -0.3888323, -0.7188151, -9.493415
IMU2, 903184, 0.00939554, 0.008078553, 0.06287471, -0.4452166, -0.7257437, -9.980554
MAG, 903198, 197, 33, 510, -107, -17, 71, 0, 0, 0
MAG2, 903198, 168, -58, 469, -19, 19, -505, 0, 0, 0
ATT, 903201, 0.00, -0.66, 0.00, -0.50, 338.10, 338.10, 0.05, 0.01
EKF1, 903201, -2.31, -1.35, 333.74, 0.01721002, -0.179874, 0.02375561, -0.02766909, -0.01075531, -0.4979839, 0.00, 0.00, 0.00
EKF2, 903201, 49, 0, 0, 0.00, 0.00, 191, -47, 505, 107, 17, -71
EKF3, 903201, 0.00, -0.08, -0.04, -0.02, -0.07, -0.22, -1, 1, -6, 0.00
EKF4, 903201, 0.01, 0.01, 0.02, 0.01, 0.01, 0.03, 0.00, 0, 0, 1, 0
AHR2, 903202, -2.31, -1.35, 333.74, 23.02, 41.4894605, -71.4224135
RCIN, 903202, 2015, 2016, 992, 2016, 1147, 1464, 992, 1504, 0, 0, 0, 0, 0, 0
RCOU, 903202, 1082, 1082, 1082, 1082, 1082, 1082, 1082, 1082
IMU, 903204, 0.02460761, 0.01865235, 0.01911782, 0.5921828, 0.0309348, -9.549263
IMU2, 903204, 0.005186014, 0.01521169, 0.01591749, 0.7364389, 0.09647596, -9.277617
IMU, 903223, -0.01463295, -0.01517596, -0.02367562, 0.2458715, -0.6639721, -9.955774
IMU2, 903223, -0.007207312, -0.00851237, -0.03099551, 0.2230216, -0.6443343, -9.988675
BARO, 903239, 0.3463116, 100792.6, 17.25, 1.31886
CTUN, 903239, 0, 0, 0, -0.06912656, -0.06, 0.34, 0.00, 0.00, 0, -17
IMU, 903244, -0.01076901, -0.0009743311, -0.02636772, 0.5622816, -0.1929771, -9.310843
IMU2, 903244, -0.04124602, -0.00876122, -0.02121436, 0.6014014, -0.2191175, -9.008135
IMU, 903265, -0.003169054, -0.01329756, -0.04524752, 0.05420727, -0.2014998, -10.28517
IMU2, 903265, 0.009441562, -0.004667066, -0.05372864, 0.1370711, -0.05515909, -10.19961
IMU, 903285, -0.03397343, -0.02134176, 0.02174516, 0.2892842, -0.1006114, -9.471469
IMU2, 903285, -0.06809746, -0.03422327, 0.03493804, 0.2017677, -0.2273968, -9.283724
MAG, 903300, 198, 30, 511, -107, -17, 71, 0, 0, 0
MAG2, 903300, 169, -58, 469, -19, 19, -505, 0, 0, 0
ATT, 903303, 0.00, -0.72, 0.00, -0.55, 338.05, 338.05, 0.05, 0.02
EKF1, 903303, -2.39, -1.41, 333.69, 0.02935555, -0.2214075, 0.03673054, -0.02169579, -0.02116418, -0.4654119, 0.00, 0.00, 0.00
EKF2, 903303, 49, 0, 0, 0.00, 0.00, 191, -47, 505, 107, 17, -71
EKF3, 903303, 0.00, -0.08, -0.04, -0.02, -0.07, -0.16, -3, 2, -4, 0.00
EKF4, 903303, 0.01, 0.01, 0.01, 0.02, 0.01, 0.03, 0.00, 0, 0, 1, 0
AHR2, 903303, -2.39, -1.41, 333.69, 22.99, 41.4894606, -71.4224136
RCIN, 903303, 2015, 2016, 992, 2016, 1147, 1464, 992, 1504, 0, 0, 0, 0, 0, 0
RCOU, 903303, 1082, 1082, 1082, 1082, 1082, 1082, 1082, 1082
IMU, 903306, 0.006512968, -0.01314252, 0.03271505, -0.1751619, 0.07394953, -10.28936
IMU2, 903306, 0.02209955, -0.001406148, 0.04242044, -0.09288514, 0.3052566, -10.23969
GPS, 3, 507932200, 1885, 9, 1.64, 41.4894608, -71.422412, -0.06, 22.82, 0.07, 223.30, -0.06, 903318
IMU, 903326, -0.02629924, -0.004556099, 0.05003701, 0.0262721, -0.4986539, -9.412357
IMU2, 903326, -0.04018297, -0.01160198, 0.03628095, -0.1608375, -0.5684142, -9.385152
BARO, 903342, 0.4581969, 100791.3, 17.25, 1.279644
CTUN, 903342, 0, 0, 0, -0.06164237, -0.06, 0.45, 0.00, 0.00, 0, -17
IMU, 903346, 0.0372212, 0.02343783, 0.001232899, -0.06943906, 0.1940089, -10.18918
IMU2, 903346, 0.03869744, 0.0313796, -0.005868256, 0.0253073, 0.2739973, -10.08434
IMU, 903367, -0.01261589, 0.003064103, -0.01063804, 0.1118898, -0.6686765, -9.440804
IMU2, 903367, -0.02366623, -0.00365942, -0.02176192, -0.0139538, -0.7205715, -9.29523
IMU, 903387, 0.0309304, 0.01750341, -0.04329819, 0.1348797, 0.1807784, -10.30463
IMU2, 903387, 0.03539503, 0.01924452, -0.04111325, 0.2833091, 0.3257549, -10.0573
MAG, 903402, 201, 36, 508, -107, -17, 71, 0, 0, 0
MAG2, 903402, 168, -57, 467, -19, 19, -505, 0, 0, 0
ATT, 903405, 0.00, -0.66, 0.00, -0.49, 338.07, 338.07, 0.02, 0.00
EKF1, 903405, -2.33, -1.35, 333.71, 0.03484637, -0.2311191, 0.03248585, -0.01322209, -0.0282491, -0.4546251, 0.00, 0.00, 0.00
EKF2, 903405, 49, 0, 0, 0.00, 0.00, 191, -47, 505, 107, 17, -71
EKF3, 903406, -0.05, -0.18, 0.08, -0.04, -0.11, -0.01, -6, 4, -6, 0.00
EKF4, 903406, 0.03, 0.02, 0.00, 0.03, 0.02, 0.04, 0.00, 0, 0, 1, 0
AHR2, 903406, -2.33, -1.35, 333.71, 22.98, 41.4894606, -71.4224137
RCIN, 903406, 2015, 2016, 992, 2016, 1146, 1465, 992, 1504, 0, 0, 0, 0, 0, 0
RCOU, 903406, 1082, 1082, 1082, 1082, 1082, 1082, 1082, 1082
IMU, 903408, -0.01182211, -0.002785385, -0.01033927, 0.3028461, -0.7089255, -9.620373
IMU2, 903408, -0.01437666, -0.002895691, -0.005611159, 0.3212469, -0.6623659, -9.539984
IMU, 903428, 0.008324079, 0.008405477, 0.002980977, 0.4442887, 0.1207046, -9.972331
IMU2, 903428, 0.003547572, 0.009848636, 0.007042604, 0.4873954, 0.1819603, -9.84366
BARO, 903443, 0.2290985, 100794, 17.25, 0.7546484
CTUN, 903443, 0, 0, 0, -0.04727164, -0.04, 0.22, 0.00, 0.00, 0, -16
IMU, 903447, 0.004906354, 0.002096649, -0.01658892, 0.1815894, -0.6273296, -9.909101
IMU2, 903447, 0.006895818, -0.0004894137, -0.01619709, 0.2375625, -0.572622, -9.797994
IMU, 903468, -0.01732806, -0.02216926, 0.02230787, 0.02643903, 0.1507451, -10.08267
IMU2, 903468, -0.02285125, -0.02491116, 0.03283018, 0.1121218, 0.1269871, -10.14633
IMU, 903488, -0.008854165, -0.005922377, 0.009941646, 0.1510117, -0.3740508, -9.471193
IMU2, 903488, -0.01008754, 0.004681848, -0.0007636622, 0.1089715, -0.2673077, -9.441974
MAG, 903504, 196, 34, 512, -107, -17, 71, 0, 0, 0
MAG2, 903504, 169, -58, 470, -19, 19, -505, 0, 0, 0
ATT, 903506, 0.00, -0.68, 0.00, -0.51, 338.11, 338.11, 0.02, 0.00
EKF1, 903506, -2.33, -1.37, 333.74, 0.04778378, -0.2550314, 0.02829091, -0.002444835, -0.03456097, -0.4347997, 0.00, 0.00, 0.00
EKF2, 903506, 49, 0, 0, 0.00, 0.00, 191, -47, 505, 107, 17, -71
EKF3, 903506, -0.05, -0.18, 0.08, -0.04, -0.11, -0.22, -1, -2, -3, 0.00
EKF4, 903506, 0.03, 0.02, 0.02, 0.01, 0.01, 0.02, 0.00, 0, 0, 1, 0
AHR2, 903506, -2.33, -1.37, 333.74, 22.96, 41.4894607, -71.4224138
RCIN, 903506, 2015, 2016, 992, 2016, 1146, 1465, 992, 1504, 0, 0, 0, 0, 0, 0
RCOU, 903507, 1082, 1082, 1082, 1082, 1082, 1082, 1082, 1082
IMU, 903509, 0.02154145, 0.02230053, 0.005109457, -0.1625157, 0.2562147, -10.15586
IMU2, 903509, 0.01677301, 0.02479771, 0.02041518, -0.1416851, 0.316988, -9.974745
GPS, 3, 507932400, 1885, 9, 1.64, 41.4894611, -71.4224117, -0.04, 22.86, 0.04, 223.30, -0.02, 903521
IMU, 903530, -0.02731589, -0.02586456, -0.003865826, 0.164675, -0.6474968, -9.601431
IMU2, 903530, -0.0388316, -0.03344407, -0.01264751, 0.08424342, -0.5760813, -9.515551
BARO, 903545, 0.3862706, 100792.1, 17.25, 0.2094097
CTUN, 903545, 0, 0, 0, -0.04734978, -0.04, 0.38, 0.00, 0.00, 0, -16
IMU, 903549, 0.02648813, 0.01384292, -0.01892924, 0.1251231, 0.3502228, -10.3606
IMU2, 903549, 0.02919046, 0.02053444, -0.009135082, 0.2146497, 0.437683, -10.40971
IMU, 903570, -0.006325247, 0.00570767, -0.01496786, 0.289711, -0.6545095, -9.508928
IMU2, 903570, -0.01334938, -0.006227307, -0.02841631, 0.03979599, -0.7386003, -9.424921
IMU, 903589, 0.0167746, 0.0003330298, -0.004018537, 0.03052606, -0.001501579, -10.03275
IMU2, 903589, 0.01534359, -0.003654979, 0.0118455, 0.2501845, 0.09490812, -9.740418
MAG, 903606, 199, 36, 509, -107, -17, 71, 0, 0, 0
MAG2, 903606, 168, -57, 467, -19, 19, -505, 0, 0, 0
ATT, 903608, 0.00, -0.71, 0.00, -0.50, 338.09, 338.09, 0.04, 0.00
EKF1, 903608, -2.31, -1.35, 333.72, 0.05191055, -0.2717651, 0.02942692, 0.006408293, -0.04187522, -0.420475, 0.00, 0.00, 0.00
EKF2, 903608, 49, 0, 0, 0.00, 0.00, 191, -47, 505, 107, 17, -71
EKF3, 903608, 0.02, -0.17, 0.05, -0.06, -0.16, -0.05, -4, 1, -6, 0.00
EKF4, 903608, 0.02, 0.03, 0.00, 0.03, 0.00, 0.04, 0.00, 0, 0, 1, 0
AHR2, 903608, -2.31, -1.35, 333.72, 22.95, 41.4894607, -71.4224139
RCIN, 903608, 2013, 2016, 992, 2006, 1146, 1465, 992, 1504, 0, 0, 0, 0, 0, 0
RCOU, 903608, 1082, 1082, 1082, 1082, 1082, 1082, 1082, 1082
IMU, 903610, -0.02682167, -0.02235189, 0.01559194, 0.5190412, -0.4113014, -9.868214
IMU2, 903610, -0.03200996, -0.02835473, 0.01333222, 0.4819834, -0.3582718, -9.823727
IMU, 903630, 0.03777348, 0.02865936, 0.0178728, 0.1141104, 0.04292874, -10.19523
IMU2, 903630, 0.03049869, 0.0282258, 0.02882689, 0.2711898, 0.09508061, -10.08935
BARO, 903645, 0.3622952, 100792.4, 17.25, -0.1142193
CTUN, 903645, 0, 0, 0, -0.03743788, -0.03, 0.36, 0.00, 0.00, 0, -15
IMU, 903651, -0.03344791, -0.03375994, 0.01114071, 0.208084, -0.7779464, -9.646584
IMU2, 903651, -0.05067553, -0.04012968, -0.003702905, 0.1776714, -0.7054826, -9.558887
IMU, 903670, 0.02016914, 0.01493821, -0.006527348, 0.2787579, 0.3316781, -9.984679
IMU2, 903670, 0.01407815, 0.01355356, -0.00839556, 0.2966498, 0.3379511, -9.717804
IMU, 903690, -0.03239695, -0.02995016, -0.01481515, 0.006946113, -0.8086408, -9.648143
IMU2, 903690, -0.04667226, -0.03418764, -0.02097523, -0.0340234, -0.7574761, -9.464452
MAG, 903705, 197, 35, 512, -107, -17, 71, 0, 0, 0
MAG2, 903705, 169, -58, 470, -19, 19, -505, 0, 0, 0
ATT, 903708, 0.00, -0.76, 0.00, -0.50, 338.08, 338.08, 0.04, 0.00
EKF1, 903709, -2.31, -1.35, 333.71, 0.05389902, -0.2903081, 0.02584255, 0.01691653, -0.04804412, -0.4132482, 0.00, 0.00, 0.00
EKF2, 903709, 49, 0, 0, 0.00, 0.00, 191, -47, 505, 107, 17, -71
EKF3, 903709, 0.02, -0.17, 0.05, -0.06, -0.16, -0.06, -2, 0, -3, 0.00
EKF4, 903709, 0.02, 0.03, 0.00, 0.01, 0.00, 0.02, 0.00, 0, 0, 1, 0
AHR2, 903709, -2.31, -1.35, 333.71, 22.94, 41.4894608, -71.4224139
RCIN, 903709, 2010, 2016, 993, 1922, 1147, 1464, 992, 1504, 0, 0, 0, 0, 0, 0
RCOU, 903709, 1082, 1082, 1082, 1082, 1082, 1082, 1082, 1082
IMU, 903711, 0.01667072, 0.007465702, -0.01400033, 0.1475089, 0.290553, -10.03163
IMU2, 903711, 0.002355531, 0.008980252, -0.004897255, 0.1561015, 0.3496369, -9.941479
GPS, 3, 507932600, 1885, 9, 1.64, 41.4894612, -71.4224117, -0.03, 22.87, 0.08, 223.30, -0.08, 903723
IMU, 903731, -0.02182453, -0.01981382, -0.01163689, -0.1475188, -0.6246723, -9.659736
IMU2, 903731, -0.02107655, -0.01133712, -0.02579926, -0.2486422, -0.5290723, -9.755968
BARO, 903746, 0.5540986, 100790.1, 17.25, -0.02952917
CTUN, 903746, 0, 0, 0, -0.02926781, -0.03, 0.55, 0.00, 0.00, 0, -15
IMU, 903751, 0.02503508, 0.02850788, 0.008101999, 0.1963549, 0.2905843, -9.836807
IMU2, 903751, 0.02433491, 0.03431257, 0.01714074, 0.3303887, 0.3091608, -9.552687
IMU, 903771, -0.02405995, -0.02095645, 0.02299932, 0.02570897, -0.5949614, -9.54999
IMU2, 903771, -0.03270679, -0.02259073, 0.01611613, -0.04995811, -0.5197715, -9.495234
IMU, 903791, 0.02018798, 0.02488996, 0.01574379, 0.2406855, 0.06108344, -9.788156
IMU2, 903791, 0.007210404, 0.02652503, 0.01884907, 0.2375846, 0.06249297, -9.527045
MAG, 903806, 201, 33, 509, -107, -17, 71, 0, 0, 0
MAG2, 903806, 168, -58, 469, -19, 19, -505, 0, 0, 0
ATT, 903809, 0.00, -0.76, 0.00, -0.47, 338.13, 338.13, 0.01, 0.01
EKF1, 903809, -2.27, -1.30, 333.75, 0.0594385, -0.3043058, 0.02041893, 0.02592541, -0.0567937, -0.4207264, 0.00, 0.00, 0.00
EKF2, 903809, 49, 0, 0, 0.00, 0.00, 191, -47, 505, 107, 17, -71
EKF3, 903809, 0.02, -0.18, 0.11, -0.05, -0.17, 0.13, -7, 0, -7, 0.00
EKF4, 903809, 0.03, 0.03, 0.01, 0.04, 0.00, 0.04, 0.00, 0, 0, 1, 0
AHR2, 903809, -2.27, -1.30, 333.75, 22.95, 41.4894609, -71.422414
RCIN, 903809, 2010, 2016, 992, 1829, 1146, 1464, 993, 1503, 0, 0, 0, 0, 0, 0
RCOU, 903810, 1082, 1082, 1082, 1082, 1082, 1082, 1082, 1082
IMU, 903811, -0.01946972, -0.02737238, 0.007200783, 0.3469743, -0.8033022, -9.648656
IMU2, 903811, -0.03605341, -0.03669412, 0.006719122, 0.3274999, -0.7466539, -9.34554
IMU, 903831, 0.02399469, 0.01108072, -0.02659255, 0.2646549, 0.1179533, -10.56116
IMU2, 903831, 0.02545123, 0.01509054, -0.02377402, 0.3063316, 0.1503649, -10.38395
BARO, 903846, 0.9989758, 100784.9, 17.25, 0.5336385
CTUN, 903846, 0, 0, 0, -0.009329338, -0.01, 0.99, 0.00, 0.00, 0, -14
DU32, 7, 682457
CURR, 903849, 0, 0, 1612, 348, 5214, 111.5591
POWR, 903849, 5.21, 5.05, 39
IMU, 903851, -0.005242563, -0.01523037, 0.006631633, 0.1968605, -0.5046667, -10.07939
IMU2, 903851, -0.01420065, -0.02532919, 0.0096437, 0.2501144, -0.4870328, -10.05427
IMU, 903871, 0.001559483, 0.008769244, -0.01257558, 0.0002788454, 0.142001, -10.07655
IMU2, 903871, 0.01774102, 0.02829744, -0.01533827, 0.008205652, 0.2203038, -10.12215
IMU, 903891, 0.02379753, 0.03804423, 0.008877215, 0.145562, 0.09726876, -9.41785
IMU2, 903891, 0.02136172, 0.03366407, 0.02076395, 0.2210046, 0.1113697, -9.14831
MAG, 903906, 199, 34, 511, -107, -17, 71, 0, 0, 0
MAG2, 903906, 169, -58, 470, -19, 19, -505, 0, 0, 0
ATT, 903910, 0.00, -0.79, 0.00, -0.48, 338.11, 338.11, 0.01, 0.00
EKF1, 903910, -2.27, -1.30, 333.72, 0.06270865, -0.3202029, 0.007231841, 0.03624961, -0.06474943, -0.463493, 0.00, 0.00, 0.00
EKF2, 903910, 49, 0, 0, 0.00, 0.00, 191, -47, 505, 107, 17, -71
EKF3, 903910, 0.02, -0.18, 0.11, -0.05, -0.17, 0.58, -4, 2, -3, 0.00
EKF4, 903910, 0.03, 0.03, 0.05, 0.03, 0.01, 0.02, 0.00, 0, 0, 1, 0
AHR2, 903910, -2.27, -1.30, 333.72, 22.99, 41.489461, -71.4224141
RCIN, 903910, 1962, 2014, 992, 1750, 1147, 1464, 992, 1504, 0, 0, 0, 0, 0, 0
RCOU, 903910, 1082, 1082, 1082, 1082, 1082, 1082, 1082, 1082
IMU, 903912, -0.02295658, -0.02672581, -0.004786982, -0.2795131, -0.5428509, -9.888268
IMU2, 903912, -0.016464, -0.02047879, -0.007642072, -0.2627653, -0.4991238, -9.96501
GPS, 3, 507932800, 1885, 9, 1.64, 41.4894612, -71.4224119, 0.02, 22.89, 0.07, 223.30, -0.03, 903924
IMU, 903932, 0.008351162, 0.01296039, 0.02033951, 0.2928828, 0.3710709, -9.705467
IMU2, 903932, 0.002651267, 0.01518759, 0.02953726, 0.3015839, 0.2850574, -9.706487
BARO, 903948, 1.169468, 100782.9, 17.24, 1.439871
CTUN, 903948, 0, 0, 0, 0.03738489, 0.03, 1.16, 0.00, 0.00, 0, -13
IMU, 903952, -0.01315651, -0.008934116, 0.0009848308, -0.06785507, -0.7328469, -9.508245
IMU2, 903952, -0.01997646, -0.009353355, -0.002910154, -0.2221761, -0.5612519, -9.429926
IMU, 903973, 0.01349937, 0.01448431, -0.01453026, 0.1981403, 0.2727223, -9.759709
IMU2, 903973, 0.001327276, 0.009651978, -0.01485048, 0.2635462, 0.3095092, -9.586811
IMU, 903993, -0.03389901, -0.02823214, -0.0117031, 0.2876703, -0.6070964, -9.754375
IMU2, 903993, -0.03842257, -0.02880845, -0.0134499, 0.2339553, -0.5474061, -9.641973
MAG, 904008, 200, 35, 509, -107, -17, 71, 0, 0, 0
MAG2, 904008, 168, -58, 468, -19, 19, -505, 0, 0, 0
ATT, 904012, 0.00, -0.78, 0.00, -0.49, 338.10, 338.10, 0.02, 0.00
EKF1, 904012, -2.24, -1.29, 333.71, 0.06663328, -0.3328506, -0.01854611, 0.04613303, -0.07444678, -0.5256855, 0.00, 0.00, 0.00
EKF2, 904012, 49, 0, 0, 0.00, 0.00, 191, -47, 505, 107, 17, -71
EKF3, 904012, 0.00, -0.25, 0.05, -0.03, -0.17, 0.72, -6, 0, -5, 0.00
EKF4, 904012, 0.04, 0.03, 0.06, 0.04, 0.00, 0.03, 0.00, 0, 0, 1, 0
AHR2, 904012, -2.24, -1.29, 333.71, 23.05, 41.4894611, -71.4224142
RCIN, 904012, 1884, 1955, 992, 1646, 1146, 1464, 993, 1503, 0, 0, 0, 0, 0, 0
RCOU, 904012, 1082, 1082, 1082, 1082, 1082, 1082, 1082, 1082
IMU, 904014, 0.01625285, 0.0190476, -0.003107836, 0.0781487, 0.1701897, -9.858853
IMU2, 904014, 0.01549844, 0.0197821, -0.001418566, 0.1125805, 0.2229266, -9.747786
IMU, 904033, -0.02832128, -0.02513289, 0.03046234, 0.2845149, -0.5840069, -9.62081
IMU2, 904033, -0.04815216, -0.03112379, 0.02916088, 0.2276441, -0.5468591, -9.434628
BARO, 904049, 0.8551233, 100786.6, 17.24, 2.143562
CTUN, 904049, 0, 0, 0, 0.09325645, 0.08, 0.85, 0.00, 0.00, 0, -12
IMU, 904054, 0.02139567, 0.01646405, -0.0002887081, 0.08515568, 0.07685769, -10.28136
IMU2, 904054, 0.02282388, 0.01798674, -0.002285767, 0.1235775, 0.2454002, -10.04119
IMU, 904074, -0.01041554, 0.001353145, -0.02083019, 0.1611106, -0.5239502, -9.572252
IMU2, 904074, -0.02065989, 1.553446E-05, -0.02580053, 0.1225936, -0.5054884, -9.424204
IMU, 904094, -0.00611518, -0.01680683, -0.01421192, 0.004519239, -0.001717683, -9.957573
IMU2, 904094, -0.0164536, -0.0166228, -0.007320864, 0.04370272, 0.0480603, -9.809615
MAG, 904109, 198, 36, 512, -107, -17, 71, 0, 0, 0
MAG2, 904109, 168, -58, 469, -19, 19, -505, 0, 0, 0
ATT, 904112, 0.00, -0.79, 0.00, -0.50, 338.12, 338.12, 0.02, 0.00
EKF1, 904112, -2.20, -1.29, 333.73, 0.07198559, -0.3359843, -0.03270968, 0.05716292, -0.08159398, -0.5709098, 0.00, 0.00, 0.00
EKF2, 904112, 49, 0, 0, 0.00, 0.00, 191, -47, 505, 107, 17, -71
EKF3, 904112, 0.00, -0.25, 0.05, -0.03, -0.17, 0.35, -4, 0, -3, 0.00
EKF4, 904112, 0.04, 0.03, 0.03, 0.03, 0.00, 0.02, 0.00, 0, 0, 1, 0
AHR2, 904112, -2.20, -1.29, 333.73, 23.1, 41.4894612, -71.4224143
RCIN, 904112, 1870, 1932, 992, 1551, 1147, 1464, 992, 1504, 0, 0, 0, 0, 0, 0
RCOU, 904113, 1082, 1082, 1082, 1082, 1082, 1082, 1082, 1082
IMU, 904115, -0.005531904, 0.002400372, 0.02905608, 0.5762588, -0.1630368, -9.898066
IMU2, 904115, -0.008626744, -0.004170306, 0.03658633, 0.5442578, -0.1149595, -9.56299
GPS, 3, 507933000, 1885, 9, 1.64, 41.4894614, -71.4224116, 0.11, 22.91, 0.07, 223.30, 0.01, 904127
IMU, 904135, 0.02731108, 0.01777978, -0.003768883, -0.1318744, -0.2944823, -10.39451
IMU2, 904135, 0.0295063, 0.0163067, 0.002908386, -0.06527889, -0.2055972, -10.22071
BARO, 904150, 0.8071725, 100787.1, 17.24, 1.712592
CTUN, 904150, 0, 0, 0, 0.1272979, 0.12, 0.80, 0.00, 0.00, 0, -10
IMU, 904155, -0.004187328, 0.00248697, 0.02830217, 0.6716077, -0.3002656, -9.828859
IMU2, 904155, -0.02324857, -0.009249561, 0.02825925, 0.6791651, -0.4046097, -9.610565
IMU, 904175, 0.01369167, -0.001379527, -0.02926316, 0.03963562, -0.1399766, -10.31932
IMU2, 904175, 0.02012075, 0.01160267, -0.029828, 0.0672847, -0.06030798, -10.31128
UBX1, 904187, 0, 107, 4, 1
UBX2, 904187, 0, -13, 78, 17, 202
IMU, 904195, 0.0003971569, 0.009163365, 0.004148864, 0.5395215, -0.1738129, -9.70465
IMU2, 904195, -0.005300656, 0.009329587, 0.00421223, 0.5171201, -0.1756401, -9.47654
MAG, 904210, 200, 36, 510, -107, -17, 71, 0, 0, 0
MAG2, 904210, 168, -57, 469, -19, 19, -505, 0, 0, 0
ATT, 904213, 0.00, -0.78, 0.00, -0.47, 338.10, 338.10, 0.05, 0.00
EKF1, 904213, -2.16, -1.25, 333.72, 0.07671803, -0.3447437, -0.033452, 0.06682852, -0.08420771, -0.5976183, 0.00, 0.00, 0.00
EKF2, 904213, 49, 0, 0, 0.00, 0.00, 191, -47, 505, 107, 17, -71
EKF3, 904213, 0.02, -0.37, 0.00, -0.04, -0.21, 0.24, -6, 0, -6, 0.00
EKF4, 904213, 0.05, 0.04, 0.02, 0.04, 0.00, 0.04, 0.00, 0, 0, 1, 0
AHR2, 904213, -2.16, -1.25, 333.72, 23.12, 41.4894613, -71.4224144
RCIN, 904213, 1662, 1794, 992, 1511, 1146, 1464, 993, 1504, 0, 0, 0, 0, 0, 0
RCOU, 904213, 1082, 1082, 1082, 1082, 1082, 1082, 1082, 1082
IMU, 904215, 0.009000499, -0.001865588, -0.03052747, -0.008699419, -0.09838022, -10.15976
IMU2, 904215, 0.008270018, 0.005617097, -0.01892028, 0.05394602, 0.0155282, -10.08045
IMU, 904235, -0.007330046, -0.006871995, 0.03267646, 0.1502419, -0.1390218, -9.87125
IMU2, 904235, -0.01560635, -0.01246215, 0.04355881, 0.1685083, -0.12925, -9.801302
BARO, 904251, 0.8071725, 100787.1, 17.23, 0.233687
CTUN, 904251, 0, 0, 0, 0.1571091, 0.15, 0.80, 0.00, 0.00, 0, -10
IMU, 904255, -0.01295065, -0.0124247, 0.01145334, 0.01086736, -0.1163282, -9.754856
IMU2, 904255, -0.005826712, 0.002633765, 0.007199598, 0.03394747, -0.03804946, -9.790336
IMU, 904275, 0.0288646, 0.03969738, 0.02364646, 0.107315, 0.09021065, -9.606627
IMU2, 904275, 0.02487849, 0.03653564, 0.02536871, 0.1897973, 0.1257961, -9.317062
IMU, 904295, -0.03894038, -0.03663206, -0.01652193, -0.1127378, -0.6669351, -9.556599
IMU2, 904295, -0.0515901, -0.03695317, -0.02705663, -0.1767798, -0.635967, -9.592424
MAG, 904310, 197, 35, 509, -107, -17, 71, 0, 0, 0
MAG2, 904310, 168, -59, 470, -19, 19, -505, 0, 0, 0
ATT, 904312, 0.00, -0.77, 0.00, -0.46, 338.14, 338.14, 0.05, 0.00
EKF1, 904312, -2.11, -1.23, 333.77, 0.07753144, -0.337796, -0.0431643, 0.0774086, -0.08150612, -0.6198159, 0.00, 0.00, 0.00
EKF2, 904312, 49, 0, 0, 0.00, 0.00, 191, -47, 505, 107, 17, -71
EKF3, 904312, 0.02, -0.37, 0.00, -0.04, -0.21, 0.21, -3, 0, -4, 0.00
EKF4, 904312, 0.05, 0.04, 0.02, 0.02, 0.00, 0.03, 0.00, 0, 0, 1, 0
AHR2, 904313, -2.11, -1.23, 333.77, 23.14, 41.4894613, -71.4224143
RCIN, 904313, 1513, 1523, 992, 1511, 1146, 1465, 992, 1504, 0, 0, 0, 0, 0, 0
RCOU, 904314, 1082, 1082, 1082, 1082, 1082, 1082, 1082, 1082
IMU, 904315, 0.006829657, 0.006703775, -0.02868582, 0.1924436, 0.234367, -9.73813
IMU2, 904315, 0.002106912, 0.01345948, -0.02612156, 0.2484014, 0.2950264, -9.495298
GPS, 3, 507933200, 1885, 9, 1.64, 41.4894617, -71.4224113, 0.17, 22.94, 0.13, 223.30, 0.09999999, 904328
IMU, 904335, -0.02589999, -0.01148613, -0.04515888, -0.02582674, -0.515872, -9.565783
IMU2, 904335, -0.03734729, -0.003370114, -0.05608661, -0.09266722, -0.4258371, -9.780181
BARO, 904350, 0.9163938, 100785.8, 17.22, -0.6749185
CTUN, 904350, 0, 0, 0, 0.1860634, 0.18, 0.91, 0.00, 0.00, 0, -9
IMU, 904355, 0.002832174, 0.001281001, -0.002009039, -0.0377813, 0.02936185, -9.839869
IMU2, 904355, -0.01463996, 0.001788251, 0.01673582, 0.07764626, 0.1000659, -9.579844
IMU, 904375, -0.02147457, -0.02670289, 0.05489087, 0.5758508, -0.2426794, -9.887609
IMU2, 904375, -0.04005047, -0.03185239, 0.05233367, 0.5105412, -0.2060072, -9.663951
IMU, 904396, 0.05552279, 0.04351044, 0.03115894, 0.1557432, -0.2702876, -10.67297
IMU2, 904396, 0.05259021, 0.04231267, 0.03209722, 0.08816266, -0.2430674, -10.48801
MAG, 904411, 200, 36, 511, -107, -17, 71, 0, 0, 0
MAG2, 904411, 168, -57, 469, -19, 19, -505, 0, 0, 0
ATT, 904413, 0.00, -0.76, 0.00, -0.44, 338.19, 338.19, 0.03, 0.00
EKF1, 904413, -2.04, -1.17, 333.83, 0.08811755, -0.3301523, -0.04628798, 0.09121542, -0.07803696, -0.6421522, 0.00, 0.00, 0.00
EKF2, 904413, 48, 0, 0, 0.00, 0.00, 191, -47, 505, 107, 17, -71
EKF3, 904413, -0.03, -0.41, -0.13, -0.05, -0.25, 0.30, -6, 1, -4, 0.00
EKF4, 904413, 0.06, 0.05, 0.02, 0.04, 0.00, 0.02, 0.00, 0, 0, 1, 0
AHR2, 904413, -2.04, -1.17, 333.83, 23.17, 41.4894615, -71.4224143
RCIN, 904413, 1508, 1507, 993, 1510, 1147, 1464, 992, 1504, 0, 0, 0, 0, 0, 0
RCOU, 904413, 1082, 1082, 1082, 1082, 1082, 1082, 1082, 1082
IMU, 904415, -0.009083645, -0.003357429, 0.006083906, 0.3522593, -0.5876355, -9.478599
IMU2, 904415, -0.02296351, -0.01276045, -0.0006865002, 0.2127671, -0.5656669, -9.358538
RAD, 904425, 25, 0, 69, 27, 0, 0, 0
RAD, 904425, 25, 0, 69, 27, 0, 0, 0
IMU, 904436, 0.01337218, -0.008355895, -0.04206725, -0.1278193, -0.1064101, -9.951088
IMU2, 904436, 0.004374929, -0.002217174, -0.04336658, -0.1493737, -0.05417144, -9.779657
BARO, 904451, 0.8924184, 100786.1, 17.23, -0.4333788
CTUN, 904451, 0, 0, 0, 0.220751, 0.21, 0.89, 0.00, 0.00, 0, -8
IMU, 904455, -0.02491152, -0.02645403, -0.002844307, 0.181106, -0.1362415, -9.9898
IMU2, 904455, -0.03535834, -0.02596774, 0.004080577, 0.2889361, -0.1573648, -9.954507
IMU, 904475, -0.006176899, 0.003773216, -0.0134229, -0.03320321, -0.03429595, -9.893648
IMU2, 904475, -0.006877046, 0.01720297, -0.01422737, -0.09464931, -0.06090689, -9.854244
IMU, 904495, 0.03295112, 0.05185538, 0.02458051, 0.1643469, 0.2310902, -9.4174
IMU2, 904495, 0.01772249, 0.0431575, 0.03358223, 0.1709329, 0.2173097, -9.026859
MAG, 904510, 200, 35, 510, -107, -17, 71, 0, 0, 0
MAG2, 904510, 168, -59, 469, -19, 19, -505, 0, 0, 0
ATT, 904513, 0.00, -0.79, 0.00, -0.46, 338.15, 338.15, 0.03, 0.00
EKF1, 904513, -2.00, -1.15, 333.81, 0.09124851, -0.3196236, -0.04375662, 0.1067169, -0.06808203, -0.663166, 0.00, 0.00, 0.00
EKF2, 904513, 48, 0, 0, 0.00, 0.00, 191, -47, 505, 107, 17, -71
EKF3, 904513, -0.03, -0.41, -0.13, -0.05, -0.25, 0.25, -6, 1, -5, 0.00
EKF4, 904513, 0.06, 0.05, 0.02, 0.04, 0.00, 0.03, 0.00, 0, 0, 1, 0
AHR2, 904513, -2.00, -1.15, 333.81, 23.19, 41.4894616, -71.4224142
RCIN, 904514, 1508, 1508, 992, 1511, 1146, 1464, 993, 1503, 0, 0, 0, 0, 0, 0
RCOU, 904514, 1082, 1082, 1082, 1082, 1082, 1082, 1082, 1082
IMU, 904516, -0.02309339, -0.02740994, -0.0005512191, -0.2289319, -0.7277658, -9.999096
IMU2, 904516, -0.03024358, -0.02665469, -0.003275089, -0.2348271, -0.6578449, -9.886434
GPS, 3, 507933400, 1885, 9, 1.64, 41.4894619, -71.4224113, 0.24, 22.95, 0.07, 223.30, 0.11, 904528
IMU, 904535, 0.004991874, 0.01144877, -0.001347649, 0.308037, 0.3039623, -9.514688
IMU2, 904535, -0.01000852, 0.01472048, 0.0007869396, 0.3430175, 0.3775747, -9.332437
BARO, 904550, 1.00164, 100784.9, 17.22, 0.1789259
CTUN, 904550, 0, 0, 0, 0.2526103, 0.24, 1.00, 0.00, 0.00, 0, -7
IMU, 904555, -0.0170989, -0.02285125, -0.0002507335, 0.2667578, -0.7571486, -9.408013
IMU2, 904555, -0.03070931, -0.02639958, -0.001331419, 0.2548543, -0.7508103, -9.33319
IMU, 904575, 0.01262861, 0.01148264, -0.02173094, 0.09117402, 0.02981466, -10.19159
IMU2, 904575, -0.004714981, 0.01888684, -0.01959386, 0.1092618, 0.08008313, -9.852205
IMU, 904596, -0.01489376, -0.01998127, -0.005576839, 0.4111656, -0.5235696, -9.851657
IMU2, 904596, -0.04084555, -0.02599289, -0.008438978, 0.3650398, -0.5278809, -9.595268
MAG, 904611, 200, 37, 510, -107, -17, 71, 0, 0, 0
MAG2, 904612, 169, -58, 469, -19, 19, -505, 0, 0, 0
ATT, 904614, 0.00, -0.85, 0.00, -0.48, 338.11, 338.11, 0.04, 0.01
EKF1, 904614, -1.98, -1.16, 333.79, 0.09747888, -0.3228571, -0.04778605, 0.1205292, -0.0667587, -0.6872301, 0.00, 0.00, 0.00
EKF2, 904614, 48, 0, 0, 0.00, 0.00, 191, -47, 505, 107, 17, -71
EKF3, 904614, 0.00, -0.32, -0.15, -0.05, -0.25, 0.34, -7, 1, -4, 0.00
EKF4, 904614, 0.05, 0.05, 0.03, 0.05, 0.00, 0.02, 0.00, 0, 0, 1, 0
AHR2, 904614, -1.98, -1.16, 333.79, 23.21, 41.4894617, -71.4224142
RCIN, 904614, 1508, 1507, 992, 1511, 1146, 1465, 992, 1504, 0, 0, 0, 0, 0, 0
RCOU, 904614, 1082, 1082, 1082, 1082, 1082, 1082, 1082, 1082
IMU, 904616, 0.01061069, 0.003925581, -0.0004594009, 0.00616773, -0.0009258278, -10.36977
IMU2, 904616, 0.01634664, 0.008347858, 0.000807412, -0.003894806, 0.03494549, -10.21004
IMU, 904636, 0.007791853, 0.01891903, 0.03719503, 0.4863837, -0.1371821, -9.510227
IMU2, 904636, -0.01133483, 0.009722639, 0.03660098, 0.4341439, -0.2233467, -9.225995
BARO, 904652, 0.9323775, 100785.7, 17.22, 0.3959529
CTUN, 904652, 0, 0, 0, 0.2904123, 0.28, 0.93, 0.00, 0.00, 0, -6
IMU, 904656, 0.009135637, -0.009506969, 0.007669282, -0.2417352, -0.3923535, -10.29336
IMU2, 904656, 0.002345428, -0.008234821, 0.01246616, -0.2755529, -0.4007394, -10.25325
IMU, 904676, -0.007201599, -0.00404847, 0.02590458, 0.4882138, 0.009587023, -9.93969
IMU2, 904676, -0.01573923, -0.004125647, 0.03148789, 0.4343821, 0.05298722, -9.785411
IMU, 904696, 0.009865142, 0.002409127, -0.02475709, -0.2430084, -0.4470893, -9.803977
IMU2, 904696, 0.01786759, 0.009742528, -0.0249311, -0.3204497, -0.3676329, -10.01955
MAG, 904711, 198, 34, 509, -107, -17, 71, 0, 0, 0
MAG2, 904711, 168, -59, 469, -19, 19, -505, 0, 0, 0
ATT, 904714, 0.00, -0.86, 0.00, -0.45, 338.15, 338.15, 0.04, 0.00
EKF1, 904714, -1.90, -1.11, 333.85, 0.09962684, -0.3090449, -0.05562856, 0.1354602, -0.05981573, -0.7080289, 0.00, 0.00, 0.00
EKF2, 904714, 48, 0, 0, 0.00, 0.00, 191, -47, 505, 107, 17, -71
EKF3, 904714, 0.00, -0.32, -0.15, -0.05, -0.25, 0.25, -5, 0, -3, 0.00
EKF4, 904714, 0.05, 0.05, 0.02, 0.03, 0.00, 0.02, 0.00, 0, 0, 1, 0
AHR2, 904714, -1.90, -1.11, 333.85, 23.23, 41.4894619, -71.4224141
RCIN, 904714, 1508, 1507, 993, 1510, 1147, 1464, 992, 1504, 0, 0, 0, 0, 0, 0
RCOU, 904714, 1082, 1082, 1082, 1082, 1082, 1082, 1082, 1082
IMU, 904716, 0.01700965, 0.02978708, -0.005579523, 0.3975785, 0.1913137, -9.668709
IMU2, 904716, 0.007920712, 0.02674508, -0.008334195, 0.5431814, 0.1611267, -9.470818
GPS, 3, 507933600, 1885, 9, 1.64, 41.489462, -71.4224114, 0.31, 22.95, 0.09, 223.30, 0.11, 904728
IMU, 904736, -0.001738288, -0.01416983, -0.03830643, -0.1591579, -0.4593721, -10.04316
IMU2, 904736, -0.001432635, -0.005381823, -0.03739056, -0.1229748, -0.4241379, -9.889239
BARO, 904752, 0.7778692, 100787.5, 17.23, 0.275042
CTUN, 904752, 0, 0, 0, 0.3225534, 0.31, 0.77, 0.00, 0.00, 0, -6
IMU, 904756, -0.01019101, -0.005652389, 0.0192027, 0.5943069, -0.006891668, -9.973456
IMU2, 904756, -0.02396158, -0.0107761, 0.02819666, 0.6563705, 0.04832518, -9.767096
IMU, 904776, 0.0176623, 0.007702366, -0.0006752424, 0.06915694, -0.1421584, -10.13204
IMU2, 904776, 0.02488172, 0.02005425, 0.00436525, -0.02169836, -0.07158077, -10.23632
IMU, 904796, 0.01055906, 0.01746722, 0.03861721, -0.0005348157, -0.1381748, -9.61225
IMU2, 904796, 0.005615376, 0.01289611, 0.04899403, 0.1167842, -0.1860342, -9.343513
MAG, 904811, 200, 34, 509, -107, -17, 71, 0, 0, 0
MAG2, 904811, 169, -58, 469, -19, 19, -505, 0, 0, 0
ATT, 904814, 0.00, -0.89, 0.00, -0.46, 338.18, 338.18, 0.03, 0.00
EKF1, 904814, -1.88, -1.09, 333.90, 0.1048459, -0.3117165, -0.0459685, 0.1485493, -0.05730681, -0.718066, 0.00, 0.00, 0.00
EKF2, 904814, 48, 0, 0, 0.00, 0.00, 191, -47, 505, 107, 17, -71
EKF3, 904814, 0.01, -0.36, -0.15, -0.03, -0.23, 0.07, -8, 3, -3, 0.00
EKF4, 904814, 0.06, 0.04, 0.00, 0.05, 0.02, 0.02, 0.00, 0, 0, 1, 0
AHR2, 904814, -1.88, -1.09, 333.90, 23.24, 41.489462, -71.422414
RCIN, 904814, 1509, 1507, 992, 1511, 1146, 1464, 993, 1504, 0, 0, 0, 0, 0, 0
RCOU, 904815, 1082, 1082, 1082, 1082, 1082, 1082, 1082, 1082
IMU, 904817, -0.03130341, -0.03083473, -0.004396538, 0.05973097, -0.2353428, -9.726403
IMU2, 904817, -0.0367828, -0.01982903, -0.007059017, 0.05711281, -0.1555801, -9.754614
IMU, 904836, 0.01674645, 0.0269185, -0.009762545, 0.1870117, 0.2093256, -9.852824
IMU2, 904836, 0.004282802, 0.02967732, -0.005460152, 0.1296533, 0.2260476, -9.603436
BARO, 904852, 0.6979511, 100788.4, 17.23, -0.1297571
CTUN, 904852, 0, 0, 0, 0.3441037, 0.34, 0.69, 0.00, 0.00, 0, -5
DU32, 7, 682457
CURR, 904853, 0, 0, 1612, 309, 5188, 112.4444
POWR, 904853, 5.18, 5.06, 39
IMU, 904856, -0.01738733, -0.01399119, -0.04167362, -0.06684557, -0.6068323, -9.703503
IMU2, 904856, -0.02409931, -0.01213976, -0.05368404, -0.1366175, -0.5835078, -9.668216
PM, 488, 4000, 1714514, 12, 0, 0, 6
IMU, 904876, -0.007710347, -0.009297516, -0.01156521, 0.07356979, 0.1136825, -9.784518
IMU2, 904876, -0.02253215, -0.01349779, -0.005576514, 0.1897844, 0.1557866, -9.61939
IMU, 904896, -0.02038676, -0.02479818, 0.03320496, 0.4951711, -0.2861482, -9.851282
IMU2, 904896, -0.02996776, -0.02557281, 0.03806593, 0.4377935, -0.2587569, -9.64314
MAG, 904911, 197, 37, 511, -107, -17, 71, 0, 0, 0
MAG2, 904911, 168, -57, 469, -19, 19, -505, 0, 0, 0
ATT, 904915, 0.00, -0.89, 0.00, -0.46, 338.15, 338.15, 0.03, 0.01
EKF1, 904915, -1.83, -1.07, 333.89, 0.1077052, -0.2972062, -0.0441151, 0.1623297, -0.04898056, -0.7180209, 0.00, 0.00, 0.00
EKF2, 904915, 48, 0, 0, 0.00, 0.00, 191, -47, 505, 107, 17, -71
EKF3, 904915, 0.01, -0.36, -0.15, -0.03, -0.23, -0.01, -5, 4, -3, 0.00
EKF4, 904915, 0.06, 0.04, 0.00, 0.03, 0.03, 0.02, 0.00, 0, 0, 1, 0
AHR2, 904915, -1.83, -1.07, 333.89, 23.24, 41.4894621, -71.4224139
RCIN, 904915, 1509, 1507, 993, 1510, 1147, 1464, 992, 1504, 0, 0, 0, 0, 0, 0
RCOU, 904916, 1082, 1082, 1082, 1082, 1082, 1082, 1082, 1082
IMU, 904918, 0.05468572, 0.04743271, 0.01235668, 0.1105781, -0.1111224, -10.65958
IMU2, 904918, 0.05819192, 0.05282694, 0.01234711, 0.1030812, -0.06430113, -10.49304
GPS, 3, 507933800, 1885, 9, 1.64, 41.4894622, -71.4224113, 0.35, 22.94, 0.14, 223.30, -0.02, 904930
IMU, 904937, -0.01654522, -0.00365388, 0.01290398, 0.4341919, -0.6241678, -9.380003
IMU2, 904937, -0.03276099, -0.008043654, 0.01233268, 0.3694724, -0.5959793, -9.222319
BARO, 904952, 0.6500003, 100789, 17.22, -0.6687671
CTUN, 904952, 0, 0, 0, 0.3601963, 0.35, 0.65, 0.00, 0.00, 0, -5
IMU, 904957, 0.01459623, -0.007900819, -0.02987998, -0.08947733, -0.2668141, -9.965706
IMU2, 904957, 0.01195655, -0.002046965, -0.02357427, 0.01130033, -0.1261103, -9.811383
IMU, 904977, -0.02109247, -0.015657, 0.01390722, 0.3770821, -0.03612181, -10.04508
IMU2, 904977, -0.02960158, -0.01599259, 0.02301352, 0.4603282, -0.03355014, -9.938392
IMU, 904997, 0.006843824, 0.01276313, -0.01002821, -0.183607, -0.2408575, -10.00898
IMU2, 904997, 0.01827327, 0.02464928, -0.01526975, -0.1107265, -0.1084847, -10.19391
MAG, 905013, 200, 36, 508, -107, -17, 71, 0, 0, 0
MAG2, 905013, 169, -59, 469, -19, 19, -505, 0, 0, 0
ATT, 905015, 0.00, -0.88, 0.00, -0.45, 338.16, 338.16, 0.03, 0.00
EKF1, 905015, -1.77, -1.03, 333.92, 0.1159427, -0.2956487, -0.04431584, 0.1780506, -0.05032677, -0.7174129, 0.00, 0.00, 0.00
EKF2, 905015, 48, 0, 0, 0.00, 0.00, 191, -47, 505, 107, 17, -71
EKF3, 905015, -0.04, -0.30, -0.03, -0.03, -0.23, -0.06, -8, 1, -5, 0.00
EKF4, 905015, 0.04, 0.04, 0.00, 0.05, 0.01, 0.03, 0.00, 0, 0, 1, 0
AHR2, 905016, -1.77, -1.03, 333.92, 23.24, 41.4894622, -71.422414
RCIN, 905016, 1508, 1508, 992, 1511, 1147, 1464, 992, 1504, 0, 0, 0, 0, 0, 0
RCOU, 905016, 1082, 1082, 1082, 1082, 1082, 1082, 1082, 1082
IMU, 905017, 0.00854188, 0.02515306, 0.02291677, 0.2353096, 0.2116714, -9.245378
IMU2, 905017, 0.00336542, 0.02346695, 0.02672138, 0.2533697, 0.2595453, -9.077826
IMU, 905038, -0.006657516, -0.008864593, -0.01627535, -0.1322693, -0.3217731, -10.26083
IMU2, 905038, -0.002292998, 6.211549E-05, -0.01893626, -0.1644756, -0.3315148, -10.31279
BARO, 905054, 0.7698774, 100787.6, 17.21, -0.8269665
CTUN, 905054, 0, 0, 0, 0.3729346, 0.37, 0.76, 0.00, 0.00, 0, -4
IMU, 905059, -0.008143089, 0.003333833, -0.001294987, 0.2011416, 0.07790656, -9.399944
IMU2, 905059, -0.03095584, -0.002217643, 0.005484598, 0.2518057, 0.04767597, -9.262591
IMU, 905079, -0.01865558, -0.01849954, -0.01662404, 0.1163348, -0.4527265, -9.580125
IMU2, 905079, -0.02572937, -0.01309879, -0.01803313, 0.02105069, -0.2900369, -9.431172
IMU, 905100, 0.01406368, 0.0200546, -0.002993764, 0.07287205, 0.0476872, -9.803721
IMU2, 905100, 0.003024586, 0.0115552, 0.004016636, 0.1060357, 0.1024472, -9.567511
MAG, 905115, 201, 36, 510, -107, -17, 71, 0, 0, 0
MAG2, 905115, 169, -58, 470, -19, 19, -505, 0, 0, 0
ATT, 905118, 0.00, -0.91, 0.00, -0.47, 338.17, 338.17, 0.03, 0.00
EKF1, 905118, -1.73, -1.02, 333.95, 0.1225556, -0.2938634, -0.03919549, 0.1957193, -0.04778779, -0.721092, 0.00, 0.00, 0.00
EKF2, 905118, 48, 0, 0, 0.00, 0.00, 191, -47, 505, 107, 17, -71
EKF3, 905118, -0.04, -0.30, -0.03, -0.03, -0.23, 0.05, -9, 3, -2, 0.00
EKF4, 905118, 0.04, 0.04, 0.00, 0.06, 0.02, 0.01, 0.00, 0, 0, 1, 0
AHR2, 905119, -1.73, -1.02, 333.95, 23.25, 41.4894624, -71.4224139
RCIN, 905119, 1508, 1508, 995, 1509, 1146, 1465, 992, 1504, 0, 0, 0, 0, 0, 0
RCOU, 905119, 1082, 1082, 1082, 1082, 1082, 1082, 1082, 1082
IMU, 905121, -0.02877834, -0.04066907, 0.03016455, 0.5338187, -0.5265701, -9.856019
IMU2, 905121, -0.04632612, -0.04658411, 0.03335961, 0.4871606, -0.5076998, -9.537747
GPS, 3, 507934000, 1885, 9, 1.64, 41.4894624, -71.4224114, 0.38, 22.95, 0.08, 223.30, -0.06, 905134
IMU, 905141, 0.04089555, 0.03034815, -0.009515415, 0.1217366, -0.02032091, -10.79432
IMU2, 905141, 0.04888732, 0.04125139, -0.007221136, 0.1105446, 0.08727705, -10.60186
BARO, 905157, 0.8817627, 100786.3, 17.21, -0.4480583
CTUN, 905157, 0, 0, 0, 0.3931313, 0.39, 0.88, 0.00, 0.00, 0, -3
IMU, 905162, -0.001906779, 0.007545706, 0.008014586, 0.3978708, -0.4553857, -9.465462
IMU2, 905162, -0.01740222, -0.004947089, 0.006607804, 0.3412037, -0.5842082, -9.371732
IMU, 905182, 0.007723458, -0.01226904, -0.03038889, -0.2026524, -0.1670425, -9.93555
IMU2, 905182, 0.005106017, -0.007100202, -0.03198172, -0.2276279, -0.08828151, -9.832678
IMU, 905202, -0.01636384, -0.01237764, 0.02074479, 0.09763113, 0.04999413, -9.872766
IMU2, 905202, -0.01735974, -0.005467027, 0.0300708, 0.07236421, 0.03695655, -9.777411
MAG, 905218, 199, 31, 510, -107, -17, 71, 0, 0, 0
MAG2, 905218, 169, -57, 469, -19, 19, -505, 0, 0, 0
ATT, 905220, 0.00, -0.96, 0.00, -0.49, 338.18, 338.18, 0.04, 0.00
EKF1, 905220, -1.74, -1.03, 333.97, 0.1236823, -0.2982754, -0.04158618, 0.2089112, -0.05276117, -0.7344806, 0.00, 0.00, 0.00
EKF2, 905220, 49, 0, 0, 0.00, 0.00, 191, -47, 505, 107, 17, -71
EKF3, 905220, 0.04, -0.24, 0.01, -0.02, -0.21, 0.16, -7, 3, -4, 0.00
EKF4, 905220, 0.04, 0.04, 0.01, 0.04, 0.02, 0.02, 0.00, 0, 0, 1, 0
AHR2, 905220, -1.74, -1.03, 333.97, 23.26, 41.4894625, -71.422414
RCIN, 905220, 1508, 1508, 1006, 1509, 1147, 1464, 992, 1504, 0, 0, 0, 0, 0, 0
RCOU, 905220, 1082, 1082, 1082, 1082, 1082, 1082, 1082, 1082
IMU, 905222, -0.0215123, -0.01585584, 0.01592162, 0.170353, -0.4355809, -9.496827
IMU2, 905222, -0.03237379, -0.009633742, 0.01072029, 0.1066544, -0.4172266, -9.3603
IMU, 905242, 0.03974143, 0.04332517, 0.001993631, 0.318332, 0.1876932, -9.92171
IMU2, 905242, 0.03217046, 0.03573973, 0.002645148, 0.3721659, 0.2598963, -9.561387
BARO, 905258, 0.7778692, 100787.5, 17.21, 0.1951851
CTUN, 905258, 0, 0, 0, 0.4186855, 0.41, 0.77, 0.00, 0.00, 0, -3
IMU, 905262, -0.01891051, -0.01718753, -0.02197179, 0.1247771, -0.8643588, -9.897684
IMU2, 905262, -0.03349295, -0.02205703, -0.02903429, 0.05660212, -0.8540151, -9.826052
IMU, 905282, -0.004208373, -0.01285005, -0.03088151, -0.02457489, 0.1609849, -10.13801
IMU2, 905282, -0.009333044, -0.01135415, -0.02041684, 0.1119003, 0.3122437, -9.967252
IMU, 905302, -0.005692082, -0.004728332, 0.03782324, 0.3774792, -0.1047067, -9.684651
IMU2, 905302, -0.01631868, -0.006685309, 0.04908414, 0.3735967, -0.0308466, -9.461806
MAG, 905317, 199, 34, 510, -107, -17, 71, 0, 0, 0
MAG2, 905317, 168, -58, 470, -19, 19, -505, 0, 0, 0
ATT, 905320, 0.00, -1.00, 0.00, -0.46, 338.18, 338.18, 0.04, 0.00
EKF1, 905320, -1.73, -1.01, 333.99, 0.1237761, -0.2982662, -0.03893835, 0.2213673, -0.05399241, -0.7448306, 0.00, 0.00, 0.00
EKF2, 905320, 49, 0, 0, 0.00, 0.00, 191, -47, 505, 107, 17, -71
EKF3, 905320, 0.04, -0.24, 0.01, -0.02, -0.21, 0.04, -7, 8, -4, 0.00
EKF4, 905320, 0.04, 0.04, 0.00, 0.04, 0.05, 0.02, 0.00, 0, 0, 1, 0
AHR2, 905320, -1.73, -1.01, 333.99, 23.27, 41.4894626, -71.422414
RCIN, 905320, 1509, 1507, 1033, 1509, 1146, 1464, 993, 1504, 0, 0, 0, 0, 0, 0
RCOU, 905320, 1082, 1082, 1082, 1082, 1082, 1082, 1082, 1082
IMU, 905322, 0.0309331, 0.02986798, 0.008826302, -0.222898, -0.238571, -10.21919
IMU2, 905322, 0.03930611, 0.03820857, 0.005228434, -0.1581979, -0.1355761, -10.26643
GPS, 3, 507934200, 1885, 9, 1.64, 41.4894624, -71.4224115, 0.43, 22.98, 0.03, 223.30, -0.04, 905334
IMU, 905342, -0.0007160716, 0.01359678, 0.0364696, 0.3751974, 0.01458941, -9.321278
IMU2, 905342, -0.0116519, 0.005210958, 0.04674967, 0.3552876, -0.04033303, -9.173454
EV, 15
BARO, 905358, 0.783197, 100787.4, 17.21, 0.4355702
CTUN, 905358, 147, 0, 133, 0.4370445, 0.43, 0.78, 0.00, 0.00, -158, -3
IMU, 905363, 0.00598797, -5.032867E-06, -0.03976969, -0.01393922, -0.4456355, -10.28756
IMU2, 905363, 0.006383516, 0.01217719, -0.04153002, -0.06825697, -0.3500361, -10.36977
IMU, 905382, -0.01832892, 0.006633628, -0.02673043, 1.121258, -0.1567966, -9.294345
IMU2, 905382, -0.05093375, 0.008984897, -0.03095944, 1.083684, -0.1221085, -8.810917
IMU, 905402, -0.04196003, -0.07113443, -0.08647543, -0.2005656, -1.044775, -9.600503
IMU2, 905402, -0.06267165, -0.07708027, -0.08721235, -0.2901755, -0.9841704, -9.448687
MAG, 905417, 201, 34, 512, -107, -17, 71, 0, 0, 0
MAG2, 905417, 161, -59, 469, -19, 19, -505, 0, 0, 0
ATT, 905420, 0.00, -1.06, 0.00, -0.49, 338.04, 338.04, 0.04, 0.00
EKF1, 905420, -1.75, -1.03, 333.86, 0.1161545, -0.3086125, -0.03851791, 0.2274802, -0.0584342, -0.7515758, 0.00, 0.00, 0.00
EKF2, 905420, 49, 0, 0, 0.00, 0.00, 191, -47, 505, 107, 17, -71
EKF3, 905420, 0.14, -0.27, 0.00, 0.00, -0.20, 0.04, -10, 5, -4, 0.00
EKF4, 905420, 0.04, 0.04, 0.00, 0.06, 0.03, 0.02, 0.00, 0, 0, 1, 0
AHR2, 905420, -1.75, -1.03, 333.86, 23.28, 41.4894627, -71.4224141
RCIN, 905420, 1509, 1507, 1086, 1508, 1146, 1465, 992, 1504, 0, 0, 0, 0, 0, 0
RCOU, 905420, 1148, 1130, 1148, 1178, 1124, 1154, 1172, 1154
IMU, 905422, -0.02490052, -0.02248266, 0.03183319, -0.2173528, 0.8838202, -10.55989
IMU2, 905422, -0.007934101, -0.003811166, 0.04929562, 0.01122367, 0.9429392, -10.60306
IMU, 905442, 0.03049703, 0.03682134, 0.1638876, 0.1963235, -0.04051963, -9.607825
IMU2, 905442, 0.01479689, 0.01904233, 0.1899181, 0.2122192, -0.1953399, -9.334443
BARO, 905458, 0.7672134, 100787.6, 17.21, 0.1949323
CTUN, 905458, 216, 0, 141, 0.4549584, 0.45, 0.76, 0.00, 0.00, -133, -2
IMU, 905462, 0.001348453, -0.01161679, 0.09508645, 0.04937831, -0.9392833, -9.853655
IMU2, 905462, -0.007760752, -0.01839165, 0.09469806, -0.06139112, -0.8197941, -9.686456
IMU, 905482, 0.01858951, 0.02034409, -0.007605332, 0.4880287, 0.4078363, -10.09882
IMU2, 905482, 0.02574868, 0.0270183, -0.01989022, 0.5271649, 0.408205, -10.1298
IMU, 905502, 0.01248139, 0.03221738, -0.08754133, 0.03687511, -0.6711529, -9.62249
IMU2, 905502, 0.01135533, 0.03101863, -0.09994864, -0.04954743, -0.6115297, -9.536539
MAG, 905517, 200, 32, 516, -107, -17, 71, 0, 0, 0
MAG2, 905517, 157, -59, 471, -19, 19, -505, 0, 0, 0
ATT, 905520, 0.00, -1.01, 0.00, -0.40, 338.19, 338.19, 0.04, 0.00
EKF1, 905520, -1.67, -0.92, 334.04, 0.1052956, -0.3024149, -0.03878128, 0.2319389, -0.05823593, -0.7573089, 0.00, 0.00, 0.00
EKF2, 905520, 49, 0, 0, 0.00, 0.00, 191, -47, 505, 107, 17, -71
EKF3, 905520, 0.14, -0.27, 0.00, 0.00, -0.20, 0.01, -9, 5, -6, 0.00
EKF4, 905520, 0.04, 0.04, 0.00, 0.05, 0.03, 0.04, 0.00, 0, 0, 1, 0
AHR2, 905520, -1.67, -0.92, 334.04, 23.28, 41.4894627, -71.422414
RCIN, 905520, 1509, 1507, 1242, 1507, 1146, 1464, 993, 1503, 0, 0, 0, 0, 0, 0
RCOU, 905521, 1161, 1154, 1153, 1165, 1152, 1164, 1163, 1155
IMU, 905523, 0.007905239, 0.0009330958, -0.1333576, -0.06155531, 0.1011051, -10.03399
IMU2, 905523, 0.01129096, 0.003894567, -0.1367772, -0.1136057, 0.1215274, -9.88013
GPS, 3, 507934400, 1885, 9, 1.64, 41.4894624, -71.4224115, 0.46, 23.00, 0.04, 223.30, -0.06, 905535
IMU, 905543, -0.02707788, -0.01402277, -0.04581819, 0.2334793, 0.1791921, -9.772822
IMU2, 905543, -0.04098149, -0.008856796, -0.0342337, 0.2928158, 0.1514277, -9.660986
RAD, 905555, 25, 0, 71, 24, 0, 0, 0
RAD, 905555, 25, 0, 71, 24, 0, 0, 0
BARO, 905558, 0.6633199, 100788.8, 17.21, -0.1562704
CTUN, 905558, 341, 0, 172, 0.4715391, 0.46, 0.66, 0.00, 0.00, -36, -2
IMU, 905565, 0.0108106, 0.003752671, -0.05233359, -0.5732813, -0.5408361, -9.3856
IMU2, 905565, 0.01032031, 0.01770106, -0.05544886, -0.4613117, -0.3991607, -9.352533
IMU, 905585, -0.01809988, -0.01062871, 0.07857758, 0.2428591, 0.06897265, -9.009789
IMU2, 905585, -0.04485258, -0.01802735, 0.09436825, 0.2903588, 0.09477365, -8.772841
IMU, 905604, 0.01922017, 0.01987088, 0.1336237, 0.07235763, -0.230433, -10.08827
IMU2, 905604, 0.03715408, 0.0318817, 0.1450882, 0.04062855, -0.1792219, -9.936943
MAG, 905620, 197, 30, 515, -107, -17, 71, 0, 0, 0
MAG2, 905620, 155, -59, 471, -19, 19, -505, 0, 0, 0
ATT, 905623, 0.00, -0.96, 0.00, -0.34, 338.34, 338.34, 0.02, 0.01
EKF1, 905623, -1.60, -0.85, 334.19, 0.1084917, -0.2914955, -0.04227885, 0.2339411, -0.05943825, -0.7580711, 0.00, 0.00, 0.00
EKF2, 905623, 49, 0, 0, 0.00, 0.00, 191, -47, 505, 107, 17, -71
EKF3, 905623, 0.15, -0.32, 0.02, 0.03, -0.21, -0.09, -6, 6, -9, 0.00
EKF4, 905623, 0.05, 0.04, 0.00, 0.04, 0.04, 0.06, 0.00, 0, 0, 1, 0
AHR2, 905623, -1.60, -0.85, 334.19, 23.28, 41.4894628, -71.4224141
RCIN, 905623, 1509, 1507, 1296, 1508, 1146, 1464, 992, 1504, 0, 0, 0, 0, 0, 0
RCOU, 905623, 1170, 1194, 1180, 1148, 1198, 1166, 1152, 1176
IMU, 905625, 0.01589341, 0.03209354, 0.09574692, 0.4237731, -0.4574504, -9.681684
IMU2, 905625, -0.003103204, 0.01222502, 0.096525, 0.2782968, -0.3952515, -9.383964
IMU, 905645, -0.01011881, -0.02424768, -0.03335735, 0.06744978, -0.6774726, -9.745178
IMU2, 905645, -0.01273525, -0.0271103, -0.04319669, -0.03039718, -0.6438508, -9.591064
BARO, 905662, 0.7565577, 100787.7, 17.21, -0.3002388
CTUN, 905662, 419, 0, 178, 0.4815876, 0.48, 0.75, 0.00, 0.00, -18, -2
IMU, 905667, -0.03613622, -0.03824795, -0.1223624, 0.2618462, -0.2555245, -9.769963
IMU2, 905667, -0.04782208, -0.03635646, -0.1340937, 0.2409981, -0.2913651, -9.589193
IMU, 905688, -0.01964649, -0.02722597, -0.112547, 0.09481674, 0.01440517, -10.18115
IMU2, 905688, -0.02191298, -0.02753653, -0.1052652, 0.1283964, 0.05943084, -10.02641
IMU, 905708, -0.002288809, 0.0004509874, -0.03534377, -0.2148321, -0.06765562, -9.807688
IMU2, 905708, 0.0002772436, 0.005724065, -0.02659829, -0.09176242, -0.07246542, -9.797768
GPS, 3, 507934600, 1885, 9, 1.64, 41.4894624, -71.4224115, 0.48, 23.03, 0.03, 223.30, -0.08, 905721
MAG, 905725, 202, 33, 515, -107, -17, 71, 0, 0, 0
MAG2, 905725, 154, -59, 471, -19, 19, -505, 0, 0, 0
ATT, 905727, 0.00, -1.05, 0.00, -0.43, 338.07, 338.07, 0.03, 0.00
EKF1, 905727, -1.66, -0.89, 333.94, 0.09165151, -0.2831875, -0.03757955, 0.2336136, -0.0568379, -0.759922, 0.00, 0.00, 0.00
EKF2, 905727, 49, 0, 0, 0.00, 0.00, 191, -47, 505, 107, 17, -71
EKF3, 905727, 0.08, -0.29, 0.03, 0.04, -0.21, 0.00, -12, 10, -8, 0.00
EKF4, 905727, 0.04, 0.04, 0.00, 0.07, 0.06, 0.05, 0.00, 0, 0, 1, 0
AHR2, 905727, -1.66, -0.89, 333.94, 23.28, 41.4894627, -71.422414
RCIN, 905727, 1508, 1507, 1396, 1506, 1147, 1464, 992, 1504, 0, 0, 0, 0, 0, 0
RCOU, 905728, 1189, 1195, 1189, 1195, 1189, 1195, 1189, 1195
IMU, 905730, 0.01169435, 0.01112036, 0.09561634, 0.0919012, 0.392856, -10.09764
IMU2, 905730, 0.0118567, 0.007842042, 0.1143168, 0.1488388, 0.4270861, -10.00812
IMU, 905749, 0.02060198, 0.01997086, 0.1448989, -0.04776661, -0.441203, -9.847431
IMU2, 905749, 0.02779362, 0.007727757, 0.1617986, -0.0542233, -0.4254725, -9.730138
BARO, 905764, 0.7698774, 100787.6, 17.21, -0.2540872
CTUN, 905764, 461, 0, 196, 0.4969591, 0.49, 0.76, 0.00, 0.00, 0, -1
IMU, 905769, 0.03453794, 0.05200948, 0.0597026, 0.3992673, -0.1079788, -9.749281
IMU2, 905769, 0.03636862, 0.05404999, 0.04867144, 0.2942593, -0.04338753, -9.646508
IMU, 905790, -0.003941073, 7.526577E-05, -0.02983255, 0.04983525, -0.7027903, -9.173345
IMU2, 905790, -0.02892267, -0.007578239, -0.03853718, -0.0558753, -0.655295, -8.982306
IMU, 905810, -0.02521866, -0.03307616, -0.09536898, 0.2238907, -0.2131471, -10.00674
IMU2, 905810, -0.02854131, -0.02822591, -0.1002291, 0.2449329, -0.1235312, -9.843732
MAG, 905825, 203, 31, 516, -107, -17, 71, 0, 0, 0
MAG2, 905825, 153, -59, 471, -19, 19, -505, 0, 0, 0
ATT, 905827, 0.00, -1.00, 0.00, -0.40, 338.19, 338.19, 0.03, 0.01
